[
    {
        "address": "505 FRONT STREET, CHICOPEE, MA 01013",
        "googleMapsUrl": "http://maps.google.com/maps?q=HOLYOKE%20HEALTH%20CENTER%20INC%2C505%20FRONT%20STREET%2C+CHICOPEE%2C+MA+01013",
        "lat": 42.148087,
        "lng": -72.59758000000001,
        "name": "HOLYOKE HEALTH CENTER INC",
        "postal": 1013,
        "source": "DEA",
        "source_date": "Dec2018",
        "state": "MA"
    },
    {
        "address": "1616 MEMORIAL DR., CHICOPEE, MA 01020",
        "googleMapsUrl": "http://maps.google.com/maps?q=CVS%20PHARMACY%20INC%2C1616%20MEMORIAL%20DR.%2C+CHICOPEE%2C+MA+01020",
        "lat": 42.200012,
        "lng": -72.57292,
        "name": "CVS PHARMACY, INC.",
        "postal": 1020,
        "source": "DEA",
        "source_date": "Dec2018",
        "state": "MA"
    },
    {
        "address": "PHARMACY DEPARTMENT, 230 MAPLE STREET, HOLYOKE, MA 01040",
        "googleMapsUrl": "http://maps.google.com/maps?q=HOLYOKE%20HEALTH%20CENTER%20INC%2CPHARMACY%20DEPARTMENT%2C+HOLYOKE%2C+MA+01040",
        "lat": 42.2071708,
        "lng": -72.6086105,
        "name": "HOLYOKE HEALTH CENTER, INC.",
        "postal": 1040,
        "source": "DEA",
        "source_date": "Dec2018",
        "state": "MA"
    },
    {
        "address": "615-621 BELMONT AVENUE, SPRINGFIELD, MA 01108",
        "googleMapsUrl": "http://maps.google.com/maps?q=CVS%20PHARMACY%20INC%2C615-621%20BELMONT%20AVENUE%2C+SPRINGFIELD%2C+MA+01108",
        "lat": 42.088091,
        "lng": -72.569614,
        "name": "CVS PHARMACY, INC.",
        "postal": 1108,
        "source": "DEA",
        "source_date": "Dec2018",
        "state": "MA"
    },
    {
        "address": "501 SUMNER AVENUE, SPRINGFIELD, MA 01108",
        "googleMapsUrl": "http://maps.google.com/maps?q=WALGREEN%20EASTERN%20CO%20INC%2C501%20SUMNER%20AVENUE%2C+SPRINGFIELD%2C+MA+01108",
        "lat": 42.086056,
        "lng": -72.55819,
        "name": "WALGREEN EASTERN CO., INC.",
        "postal": 1108,
        "source": "DEA",
        "source_date": "Dec2018",
        "state": "MA"
    },
    {
        "address": "600 STATE ST, SPRINGFIELD, MA 01109",
        "googleMapsUrl": "http://maps.google.com/maps?q=CVS%20PHARMACY%20INC%2C600%20STATE%20ST%2C+SPRINGFIELD%2C+MA+01109",
        "lat": 42.109787,
        "lng": -72.57208,
        "name": "CVS PHARMACY, INC.",
        "postal": 1109,
        "source": "DEA",
        "source_date": "Dec2018",
        "state": "MA"
    },
    {
        "address": "759 CHESTNUT ST, SPRINGFIELD, MA 01199",
        "googleMapsUrl": "http://maps.google.com/maps?q=BAYSTATE%20MEDICAL%20CENTER%20INC%2C759%20CHESTNUT%20ST%2C+SPRINGFIELD%2C+MA+01199",
        "lat": 42.121864,
        "lng": -72.60290400000001,
        "name": "BAYSTATE MEDICAL CENTER INC",
        "postal": 1199,
        "source": "DEA",
        "source_date": "Dec2018",
        "state": "MA"
    },
    {
        "address": "173 ELM ST, PITTSFIELD, MA 01201",
        "googleMapsUrl": "http://maps.google.com/maps?q=T%20C%20FLYNN%20PHARMACY%2C173%20ELM%20ST%2C+PITTSFIELD%2C+MA+01201",
        "lat": 42.443882,
        "lng": -73.23778,
        "name": "T C FLYNN PHARMACY",
        "postal": 1201,
        "source": "DEA",
        "source_date": "Dec2018",
        "state": "MA"
    },
    {
        "address": "137 FEDERAL STREET, GREENFIELD, MA 01301",
        "googleMapsUrl": "http://maps.google.com/maps?q=CVS%20PHARMACY%20INC%2C137%20FEDERAL%20STREET%2C+GREENFIELD%2C+MA+01301",
        "lat": 42.590626,
        "lng": -72.59879000000001,
        "name": "CVS PHARMACY, INC.",
        "postal": 1301,
        "source": "DEA",
        "source_date": "Dec2018",
        "state": "MA"
    },
    {
        "address": "314 MAIN STREET, GARDNER, MA 01440",
        "googleMapsUrl": "http://maps.google.com/maps?q=CVS%20PHARMACY%20INC%2C314%20MAIN%20STREET%2C+GARDNER%2C+MA+01440",
        "lat": 42.57025,
        "lng": -71.99335500000001,
        "name": "CVS PHARMACY, INC.",
        "postal": 1440,
        "source": "DEA",
        "source_date": "Dec2018",
        "state": "MA"
    },
    {
        "address": "9 NELSON STREET, LEOMINSTER, MA 01453",
        "googleMapsUrl": "http://maps.google.com/maps?q=CVS%20PHARMACY%20INC%2C9%20NELSON%20STREET%2C+LEOMINSTER%2C+MA+01453",
        "lat": 42.542496,
        "lng": -71.76133,
        "name": "CVS PHARMACY, INC.",
        "postal": 1453,
        "source": "DEA",
        "source_date": "Dec2018",
        "state": "MA"
    },
    {
        "address": "197 BOSTON TURNPIKE RTE 9, SHREWSBURY, MA 01545",
        "googleMapsUrl": "http://maps.google.com/maps?q=CVS%20PHARMACY%20INC%2C197%20BOSTON%20TURNPIKE%20RTE%209%2C+SHREWSBURY%2C+MA+01545",
        "lat": 42.2746817,
        "lng": -71.7460745,
        "name": "CVS PHARMACY, INC.",
        "postal": 1545,
        "source": "DEA",
        "source_date": "Dec2018",
        "state": "MA"
    },
    {
        "address": "300 FRIBERG PARKWAY, WESTBOROUGH, MA 01581",
        "googleMapsUrl": "http://maps.google.com/maps?q=WESTBOROUGH%20BEHAVIORAL%20HEALTHCARE%20HOSPITAL%20LLC%2C300%20FRIBERG%20PARKWAY%2C+WESTBOROUGH%2C+MA+01581",
        "lat": 42.2841877412,
        "lng": -71.5839766074,
        "name": "WESTBOROUGH BEHAVIORAL HEALTHCARE HOSPITAL, LLC",
        "postal": 1581,
        "source": "DEA",
        "source_date": "April2018",
        "state": "MA"
    },
    {
        "address": "115 STAFFORD ST., WORCESTER, MA 01603",
        "googleMapsUrl": "http://maps.google.com/maps?q=CVS%20PHARMACY%20INC%2C115%20STAFFORD%20ST.%2C+WORCESTER%2C+MA+01603",
        "lat": 42.238577,
        "lng": -71.844559,
        "name": "CVS PHARMACY, INC.",
        "postal": 1603,
        "source": "DEA",
        "source_date": "Dec2018",
        "state": "MA"
    },
    {
        "address": "500 GRAFTON STREET, WORCESTER, MA 01604",
        "googleMapsUrl": "http://maps.google.com/maps?q=CVS%20PHARMACY%20INC%2C500%20GRAFTON%20STREET%2C+WORCESTER%2C+MA+01604",
        "lat": 42.250828000000006,
        "lng": -71.78043000000001,
        "name": "CVS PHARMACY, INC.",
        "postal": 1604,
        "source": "DEA",
        "source_date": "Dec2018",
        "state": "MA"
    },
    {
        "address": "400 PARK AVE., WORCESTER, MA 01610",
        "googleMapsUrl": "http://maps.google.com/maps?q=CVS%20PHARMACY%20INC%2C400%20PARK%20AVE.%2C+WORCESTER%2C+MA+01610",
        "lat": 42.256702000000004,
        "lng": -71.82347,
        "name": "CVS PHARMACY, INC.",
        "postal": 1610,
        "source": "DEA",
        "source_date": "Dec2018",
        "state": "MA"
    },
    {
        "address": "320 PARK AVE, WORCESTER, MA 01610",
        "googleMapsUrl": "http://maps.google.com/maps?q=WALGREEN%20EASTERN%20CO%20INC%2C320%20PARK%20AVE%2C+WORCESTER%2C+MA+01610",
        "lat": 42.261173,
        "lng": -71.82139699999999,
        "name": "WALGREEN EASTERN CO., INC.",
        "postal": 1610,
        "source": "DEA",
        "source_date": "Dec2018",
        "state": "MA"
    },
    {
        "address": "653 WORCESTER RD, FRAMINGHAM, MA 01701",
        "googleMapsUrl": "http://maps.google.com/maps?q=WALGREEN%20EASTERN%20CO%20INC%2C653%20WORCESTER%20RD%2C+FRAMINGHAM%2C+MA+01701",
        "lat": 42.29818,
        "lng": -71.42319499999999,
        "name": "WALGREEN EASTERN CO., INC.",
        "postal": 1701,
        "source": "DEA",
        "source_date": "Dec2018",
        "state": "MA"
    },
    {
        "address": "1280 WORCESTER RD., FRAMINGHAM, MA 01702",
        "googleMapsUrl": "http://maps.google.com/maps?q=CVS%20PHARMACY%20INC%2C1280%20WORCESTER%20RD.%2C+FRAMINGHAM%2C+MA+01702",
        "lat": 42.297886,
        "lng": -71.44966,
        "name": "CVS PHARMACY, INC.",
        "postal": 1702,
        "source": "DEA",
        "source_date": "Dec2018",
        "state": "MA"
    },
    {
        "address": "400 MASSACHUSETTS AVENUE, ACTON, MA 01720",
        "googleMapsUrl": "http://maps.google.com/maps?q=CVS%20PHARMACY%20INC%2C400%20MASSACHUSETTS%20AVENUE%2C+ACTON%2C+MA+01720",
        "lat": 42.474815,
        "lng": -71.453384,
        "name": "CVS PHARMACY, INC.",
        "postal": 1720,
        "source": "DEA",
        "source_date": "Dec2018",
        "state": "MA"
    },
    {
        "address": "90 VANDENBERG DRIVE BLDG 1900, HANSCOM AFB, MA 01731",
        "googleMapsUrl": "http://maps.google.com/maps?q=USAFTH%20MEDICAL%20SQUADRONSGSM%2C90%20VANDENBERG%20DRIVE%20BLDG%201900%2C+HANSCOM%20AFB%2C+MA+01731",
        "lat": 42.458399,
        "lng": -71.283826,
        "name": "USAF-66TH MEDICAL SQUADRON/SGSM",
        "postal": 1731,
        "source": "DEA",
        "source_date": "Dec2018",
        "state": "MA"
    },
    {
        "address": "264 EAST MAIN STREET, MARLBORO, MA 01752",
        "googleMapsUrl": "http://maps.google.com/maps?q=CVS%20PHARMACY%20INC%2C264%20EAST%20MAIN%20STREET%2C+MARLBORO%2C+MA+01752",
        "lat": 42.351196,
        "lng": -71.534706,
        "name": "CVS PHARMACY, INC.",
        "postal": 1752,
        "source": "DEA",
        "source_date": "Dec2018",
        "state": "MA"
    },
    {
        "address": "137 SOUTH MAIN STREET, MILFORD, MA 01757",
        "googleMapsUrl": "http://maps.google.com/maps?q=CVS%20PHARMACY%20INC%2C137%20SOUTH%20MAIN%20STREET%2C+MILFORD%2C+MA+01757",
        "lat": 42.14927,
        "lng": -71.50702,
        "name": "CVS PHARMACY, INC.",
        "postal": 1757,
        "source": "DEA",
        "source_date": "Dec2018",
        "state": "MA"
    },
    {
        "address": "137 WEST CENTRAL STREET, NATICK, MA 01760",
        "googleMapsUrl": "http://maps.google.com/maps?q=CVS%20PHARMACY%20INC%2C137%20WEST%20CENTRAL%20STREET%2C+NATICK%2C+MA+01760",
        "lat": 42.282641999999996,
        "lng": -71.37508000000001,
        "name": "CVS PHARMACY, INC.",
        "postal": 1760,
        "source": "DEA",
        "source_date": "Dec2018",
        "state": "MA"
    },
    {
        "address": "C/O PHARMACY DEPT, 41 MALL RD, BURLINGTON, MA 01805",
        "googleMapsUrl": "http://maps.google.com/maps?q=LAHEY%20CLINIC%20HOSPITAL%20INC%2CC/O%20PHARMACY%20DEPT%2C+BURLINGTON%2C+MA+01805",
        "lat": 42.4868368,
        "lng": -71.2063864,
        "name": "LAHEY CLINIC HOSPITAL INC",
        "postal": 1805,
        "source": "DEA",
        "source_date": "Dec2018",
        "state": "MA"
    },
    {
        "address": "68 MAIN STREET, ANDOVER, MA 01810",
        "googleMapsUrl": "http://maps.google.com/maps?q=CVS%20PHARMACY%20INC%2C68%20MAIN%20STREET%2C+ANDOVER%2C+MA+01810",
        "lat": 42.655113,
        "lng": -71.13956,
        "name": "CVS PHARMACY, INC.",
        "postal": 1810,
        "source": "DEA",
        "source_date": "Dec2018",
        "state": "MA"
    },
    {
        "address": "425 LOWELL AVE., HAVERHILL, MA 01832",
        "googleMapsUrl": "http://maps.google.com/maps?q=CVS%20PHARMACY%20INC%2C425%20LOWELL%20AVE.%2C+HAVERHILL%2C+MA+01832",
        "lat": 42.772804,
        "lng": -71.11607,
        "name": "CVS PHARMACY, INC.",
        "postal": 1832,
        "source": "DEA",
        "source_date": "Dec2018",
        "state": "MA"
    },
    {
        "address": "336 BRIDGE ST., LOWELL, MA 01850",
        "googleMapsUrl": "http://maps.google.com/maps?q=CVS%20PHARMACY%20INC%2C336%20BRIDGE%20ST.%2C+LOWELL%2C+MA+01850",
        "lat": 42.649525,
        "lng": -71.30409,
        "name": "CVS PHARMACY, INC.",
        "postal": 1850,
        "source": "DEA",
        "source_date": "Dec2018",
        "state": "MA"
    },
    {
        "address": "1815 MIDDLESEX STREET, LOWELL, MA 01851",
        "googleMapsUrl": "http://maps.google.com/maps?q=CVS%20PHARMACY%20INC%2C1815%20MIDDLESEX%20STREET%2C+LOWELL%2C+MA+01851",
        "lat": 42.634876,
        "lng": -71.35476,
        "name": "CVS PHARMACY, INC.",
        "postal": 1851,
        "source": "DEA",
        "source_date": "Dec2018",
        "state": "MA"
    },
    {
        "address": "54 PLAIN ST, LOWELL, MA 01851",
        "googleMapsUrl": "http://maps.google.com/maps?q=WALGREEN%20EASTERN%20CO%20INC%2C54%20PLAIN%20ST%2C+LOWELL%2C+MA+01851",
        "lat": 42.626425,
        "lng": -71.3222407,
        "name": "WALGREEN EASTERN CO., INC.",
        "postal": 1851,
        "source": "DEA",
        "source_date": "Dec2018",
        "state": "MA"
    },
    {
        "address": "C/O PHARMACY DEPT, 85 HERRICK ST, BEVERLY, MA 01915",
        "googleMapsUrl": "http://maps.google.com/maps?q=BEVERLY%20HOSPITAL%2CC/O%20PHARMACY%20DEPT%2C+BEVERLY%2C+MA+01915",
        "lat": 42.5765964,
        "lng": -70.8919377,
        "name": "BEVERLY HOSPITAL",
        "postal": 1915,
        "source": "DEA",
        "source_date": "Dec2018",
        "state": "MA"
    },
    {
        "address": "19 DODGE ST., BEVERLY, MA 01915",
        "googleMapsUrl": "http://maps.google.com/maps?q=CVS%20PHARMACY%20INC%2C19%20DODGE%20ST.%2C+BEVERLY%2C+MA+01915",
        "lat": 42.573723,
        "lng": -70.89262,
        "name": "CVS PHARMACY, INC.",
        "postal": 1915,
        "source": "DEA",
        "source_date": "Dec2018",
        "state": "MA"
    },
    {
        "address": "201 MAIN STREET, GLOUCESTER, MA 01930",
        "googleMapsUrl": "http://maps.google.com/maps?q=WALGREEN%20EASTERN%20CO%20INC%2C201%20MAIN%20STREET%2C+GLOUCESTER%2C+MA+01930",
        "lat": 42.613136,
        "lng": -70.660774,
        "name": "WALGREEN EASTERN CO., INC.",
        "postal": 1930,
        "source": "DEA",
        "source_date": "Dec2018",
        "state": "MA"
    },
    {
        "address": "13-1/2 POND STREET, NEWBURYPORT, MA 01950",
        "googleMapsUrl": "http://maps.google.com/maps?q=CVS%20PHARMACY%20INC%2C13-1/2%20POND%20STREET%2C+NEWBURYPORT%2C+MA+01950",
        "lat": 42.80738,
        "lng": -70.872955,
        "name": "CVS PHARMACY, INC.",
        "postal": 1950,
        "source": "DEA",
        "source_date": "Dec2018",
        "state": "MA"
    },
    {
        "address": "272 EAST CENTRAL STREET, ROUTE 140, FRANKLIN, MA 02038",
        "googleMapsUrl": "http://maps.google.com/maps?q=CVS%20PHARMACY%20INC%2C272%20EAST%20CENTRAL%20STREET%2C%20ROUTE%20140%2C+FRANKLIN%2C+MA+02038",
        "lat": 42.08039,
        "lng": -71.38544499999999,
        "name": "CVS PHARMACY, INC.",
        "postal": 2038,
        "source": "DEA",
        "source_date": "Dec2018",
        "state": "MA"
    },
    {
        "address": "261 CHAUNCY STREET, MANSFIELD, MA 02048",
        "googleMapsUrl": "http://maps.google.com/maps?q=CVS%20PHARMACY%20INC%2C261%20CHAUNCY%20STREET%2C+MANSFIELD%2C+MA+02048",
        "lat": 42.0311065,
        "lng": -71.23071170000001,
        "name": "CVS PHARMACY, INC.",
        "postal": 2048,
        "source": "DEA",
        "source_date": "Dec2018",
        "state": "MA"
    },
    {
        "address": "1880 OCEAN STREET, MARSHFIELD, MA 02050",
        "googleMapsUrl": "http://maps.google.com/maps?q=CVS%20PHARMACY%20INC%2C1880%20OCEAN%20STREET%2C+MARSHFIELD%2C+MA+02050",
        "lat": 42.092009999999995,
        "lng": -70.704475,
        "name": "CVS PHARMACY, INC.",
        "postal": 2050,
        "source": "DEA",
        "source_date": "Dec2018",
        "state": "MA"
    },
    {
        "address": "136 NAHATAN ST., NORWOOD, MA 02062",
        "googleMapsUrl": "http://maps.google.com/maps?q=CVS%20PHARMACY%20INC%2C136%20NAHATAN%20ST.%2C+NORWOOD%2C+MA+02062",
        "lat": 42.195,
        "lng": -71.20065,
        "name": "CVS PHARMACY, INC.",
        "postal": 2062,
        "source": "DEA",
        "source_date": "Dec2018",
        "state": "MA"
    },
    {
        "address": "413 WASHINGTON STREET, STOUGHTON, MA 02072",
        "googleMapsUrl": "http://maps.google.com/maps?q=WALGREEN%20EASTERN%20CO%20INC%2C413%20WASHINGTON%20STREET%2C+STOUGHTON%2C+MA+02072",
        "lat": 42.134983,
        "lng": -71.1017,
        "name": "WALGREEN EASTERN CO., INC.",
        "postal": 2072,
        "source": "DEA",
        "source_date": "Dec2018",
        "state": "MA"
    },
    {
        "address": "OUTPATIENT PHARMACY, 55 FRUIT STREET, BOSTON, MA 02114",
        "googleMapsUrl": "http://maps.google.com/maps?q=GENERAL%20HOSPITAL%20CORPORATION%2COUTPATIENT%20PHARMACY%2C+BOSTON%2C+MA+02114",
        "lat": 42.363117200000005,
        "lng": -71.0686446,
        "name": "GENERAL HOSPITAL CORPORATION",
        "postal": 2114,
        "source": "DEA",
        "source_date": "Dec2018",
        "state": "MA"
    },
    {
        "address": "243 CHARLES STREET, BOSTON, MA 02114",
        "googleMapsUrl": "http://maps.google.com/maps?q=MASS%20EYE%20%20EAR%20INFIRMARY%2C243%20CHARLES%20STREET%2C+BOSTON%2C+MA+02114",
        "lat": 42.36255,
        "lng": -71.070656,
        "name": "MASS EYE & EAR INFIRMARY",
        "postal": 2114,
        "source": "DEA",
        "source_date": "Dec2018",
        "state": "MA"
    },
    {
        "address": "DELIVER ONLY TO THE, DIRECTOR OF PHARMACY, BOSTON, MA 02114",
        "googleMapsUrl": "http://maps.google.com/maps?q=THE%20GENERAL%20HOSP%20CORPORATION%2CDELIVER%20ONLY%20TO%20THE%2C+BOSTON%2C+MA+02114",
        "lat": 42.36,
        "lng": -71.07,
        "name": "THE GENERAL HOSP CORPORATION",
        "postal": 2114,
        "source": "DEA",
        "source_date": "Dec2018",
        "state": "MA"
    },
    {
        "address": "75 FRANCIS STREET, DEPT OF PHARMACY TWR L2-504, BOSTON, MA 02115",
        "googleMapsUrl": "http://maps.google.com/maps?q=BRIGHAM%20AND%20WOMENS%20HOSPITAL%2C75%20FRANCIS%20STREET%2C+BOSTON%2C+MA+02115",
        "lat": 42.3360919,
        "lng": -71.10670470000001,
        "name": "BRIGHAM AND WOMEN'S HOSPITAL",
        "postal": 2115,
        "source": "DEA",
        "source_date": "Dec2018",
        "state": "MA"
    },
    {
        "address": "MENINO CAMPUS, 840 HARRISON AVE, BOSTON, MA 02118",
        "googleMapsUrl": "http://maps.google.com/maps?q=BOSTON%20MEDICAL%20CENTER%2CMENINO%20CAMPUS%2C+BOSTON%2C+MA+02118",
        "lat": 42.33481210000001,
        "lng": -71.0733775,
        "name": "BOSTON MEDICAL CENTER",
        "postal": 2118,
        "source": "DEA",
        "source_date": "Dec2018",
        "state": "MA"
    },
    {
        "address": "725 ALBANY STREET, PHARMACY, BOSTON, MA 02118",
        "googleMapsUrl": "http://maps.google.com/maps?q=BOSTON%20MEDICAL%20CENTER%20PHARMACY%20AT%20SHAPIRO%2C725%20ALBANY%20STREET%2C+BOSTON%2C+MA+02118",
        "lat": 42.335518,
        "lng": -71.0707,
        "name": "BOSTON MEDICAL CENTER PHARMACY AT SHAPIRO",
        "postal": 2118,
        "source": "DEA",
        "source_date": "Dec2018",
        "state": "MA"
    },
    {
        "address": "416 WARREN ST, ROXBURY, MA 02119",
        "googleMapsUrl": "http://maps.google.com/maps?q=WALGREEN%20EASTERN%20CO%20INC%2C416%20WARREN%20ST%2C+ROXBURY%2C+MA+02119",
        "lat": 42.317284,
        "lng": -71.08232,
        "name": "WALGREEN EASTERN CO., INC.",
        "postal": 2119,
        "source": "DEA",
        "source_date": "Dec2018",
        "state": "MA"
    },
    {
        "address": "715 MORRISSEY BOULEVARD, DORCHESTER, MA 02122",
        "googleMapsUrl": "http://maps.google.com/maps?q=CVS%20PHARMACY%20INC%2C715%20MORRISSEY%20BOULEVARD%2C+DORCHESTER%2C+MA+02122",
        "lat": 42.2973755,
        "lng": -71.04981219999999,
        "name": "CVS PHARMACY, INC.",
        "postal": 2122,
        "source": "DEA",
        "source_date": "Dec2018",
        "state": "MA"
    },
    {
        "address": "1 KELLY SQUARE, EAST BOSTON, MA 02128",
        "googleMapsUrl": "http://maps.google.com/maps?q=WALGREEN%20EASTERN%20CO%20INC%2C1%20KELLY%20SQUARE%2C+EAST%20BOSTON%2C+MA+02128",
        "lat": 42.3742253,
        "lng": -71.03884120000001,
        "name": "WALGREEN EASTERN CO., INC.",
        "postal": 2128,
        "source": "DEA",
        "source_date": "Dec2018",
        "state": "MA"
    },
    {
        "address": "49 ROBINWOOD AVE, JAMAICA PLAIN, MA 02130",
        "googleMapsUrl": "http://maps.google.com/maps?q=THE%20ARBOUR%20HOSPITAL%2C49%20ROBINWOOD%20AVE%2C+JAMAICA%20PLAIN%2C+MA+02130",
        "lat": 42.31577125,
        "lng": -71.11233044069999,
        "name": "THE ARBOUR HOSPITAL",
        "postal": 2130,
        "source": "DEA",
        "source_date": "April2018",
        "state": "MA"
    },
    {
        "address": "75 MT AUBURN ST, CAMBRIDGE, MA 02138",
        "googleMapsUrl": "http://maps.google.com/maps?q=HARVARD%20UNIVERSITY%20HEALTH%20SERVICES%2C75%20MT%20AUBURN%20ST%2C+CAMBRIDGE%2C+MA+02138",
        "lat": 42.3747032,
        "lng": -71.1305838,
        "name": "HARVARD UNIVERSITY HEALTH SERVICES",
        "postal": 2138,
        "source": "DEA",
        "source_date": "April2018",
        "state": "MA"
    },
    {
        "address": "36 WHITE STREET, CAMBRIDGE, MA 02140",
        "googleMapsUrl": "http://maps.google.com/maps?q=CVS%20PHARMACY%20INC%2C36%20WHITE%20STREET%2C+CAMBRIDGE%2C+MA+02140",
        "lat": 42.388866,
        "lng": -71.11775,
        "name": "CVS PHARMACY, INC.",
        "postal": 2140,
        "source": "DEA",
        "source_date": "Dec2018",
        "state": "MA"
    },
    {
        "address": "185 CENTRE STREET, MALDEN, MA 02148",
        "googleMapsUrl": "http://maps.google.com/maps?q=WALGREEN%20EASTERN%20CO%20INC%2C185%20CENTRE%20STREET%2C+MALDEN%2C+MA+02148",
        "lat": 42.425583,
        "lng": -71.07302,
        "name": "WALGREEN EASTERN CO., INC.",
        "postal": 2148,
        "source": "DEA",
        "source_date": "Dec2018",
        "state": "MA"
    },
    {
        "address": "CLINIC PHARMACY, 300 OCEAN AVENUE, REVERE, MA 02151",
        "googleMapsUrl": "http://maps.google.com/maps?q=REVERE%20HEALTHCARE%20CENTER%2CCLINIC%20PHARMACY%2C+REVERE%2C+MA+02151",
        "lat": 42.408074,
        "lng": -70.992325,
        "name": "REVERE HEALTHCARE CENTER",
        "postal": 2151,
        "source": "DEA",
        "source_date": "Dec2018",
        "state": "MA"
    },
    {
        "address": "590 FELLSWAY, MEDFORD, MA 02155",
        "googleMapsUrl": "http://maps.google.com/maps?q=CVS%20PHARMACY%20INC%2C590%20FELLSWAY%2C+MEDFORD%2C+MA+02155",
        "lat": 42.406715000000005,
        "lng": -71.08219,
        "name": "CVS PHARMACY, INC.",
        "postal": 2155,
        "source": "DEA",
        "source_date": "Dec2018",
        "state": "MA"
    },
    {
        "address": "626 SOUTHERN ARTERY, RTE 3A, QUINCY, MA 02169",
        "googleMapsUrl": "http://maps.google.com/maps?q=CVS%20PHARMACY%20INC%2C626%20SOUTHERN%20ARTERY%2C%20RTE%203A%2C+QUINCY%2C+MA+02169",
        "lat": 42.252691799999994,
        "lng": -70.9878369,
        "name": "CVS PHARMACY, INC.",
        "postal": 2169,
        "source": "DEA",
        "source_date": "Dec2018",
        "state": "MA"
    },
    {
        "address": "418 QUINCY AVENUE, QUINCY, MA 02169",
        "googleMapsUrl": "http://maps.google.com/maps?q=WALGREEN%20EASTERN%20CO%20INC%2C418%20QUINCY%20AVENUE%2C+QUINCY%2C+MA+02169",
        "lat": 42.23903189999999,
        "lng": -70.9831152,
        "name": "WALGREEN EASTERN CO., INC.",
        "postal": 2169,
        "source": "DEA",
        "source_date": "Dec2018",
        "state": "MA"
    },
    {
        "address": "42 BEALE STREET, WOLLASTON, MA 02170",
        "googleMapsUrl": "http://maps.google.com/maps?q=CVS%20PHARMACY%20INC%2C42%20BEALE%20STREET%2C+WOLLASTON%2C+MA+02170",
        "lat": 42.26665,
        "lng": -71.01776,
        "name": "CVS PHARMACY, INC.",
        "postal": 2170,
        "source": "DEA",
        "source_date": "Dec2018",
        "state": "MA"
    },
    {
        "address": "225 MAIN ST., STONEHAM, MA 02180",
        "googleMapsUrl": "http://maps.google.com/maps?q=WALGREEN%20EASTERN%20CO%20INC%2C225%20MAIN%20ST.%2C+STONEHAM%2C+MA+02180",
        "lat": 42.48683,
        "lng": -71.100105,
        "name": "WALGREEN EASTERN CO., INC.",
        "postal": 2180,
        "source": "DEA",
        "source_date": "Dec2018",
        "state": "MA"
    },
    {
        "address": "474 WASHINGTON ST., WEYMOUTH, MA 02188",
        "googleMapsUrl": "http://maps.google.com/maps?q=CVS%20PHARMACY%20INC%2C474%20WASHINGTON%20ST.%2C+WEYMOUTH%2C+MA+02188",
        "lat": 42.20813,
        "lng": -70.95748,
        "name": "CVS PHARMACY, INC.",
        "postal": 2188,
        "source": "DEA",
        "source_date": "Dec2018",
        "state": "MA"
    },
    {
        "address": "KRISTOPHER YOUNG PHARMD, 55 FOGG ROAD, SOUTH WEYMOUTH, MA 02190",
        "googleMapsUrl": "http://maps.google.com/maps?q=SOUTH%20SHORE%20HOSPITAL%2CKRISTOPHER%20YOUNG%20PHARMD%2C+SOUTH%20WEYMOUTH%2C+MA+02190",
        "lat": 42.175691,
        "lng": -70.954074,
        "name": "SOUTH SHORE HOSPITAL",
        "postal": 2190,
        "source": "DEA",
        "source_date": "Dec2018",
        "state": "MA"
    },
    {
        "address": "1267 MAIN STREET, BROCKTON, MA 02301",
        "googleMapsUrl": "http://maps.google.com/maps?q=CVS%20PHARMACY%20INC%2C1267%20MAIN%20STREET%2C+BROCKTON%2C+MA+02301",
        "lat": 42.0603,
        "lng": -71.014336,
        "name": "CVS PHARMACY, INC.",
        "postal": 2301,
        "source": "DEA",
        "source_date": "Dec2018",
        "state": "MA"
    },
    {
        "address": "275 SANDWICH STREET, PLYMOUTH, MA 02360",
        "googleMapsUrl": "http://maps.google.com/maps?q=BETH%20ISRAEL%20DEACONESS%20HOSPITALPLYMOUTH%20INC%2C275%20SANDWICH%20STREET%2C+PLYMOUTH%2C+MA+02360",
        "lat": 41.944396999999995,
        "lng": -70.645004,
        "name": "BETH ISRAEL DEACONESS HOSPITAL-PLYMOUTH, INC.",
        "postal": 2360,
        "source": "DEA",
        "source_date": "Dec2018",
        "state": "MA"
    },
    {
        "address": "8 PILGRIM HILL ROAD, PLYMOUTH, MA 02360",
        "googleMapsUrl": "http://maps.google.com/maps?q=CVS%20PHARMACY%20INC%2C8%20PILGRIM%20HILL%20ROAD%2C+PLYMOUTH%2C+MA+02360",
        "lat": 41.951021000000004,
        "lng": -70.687659,
        "name": "CVS PHARMACY, INC.",
        "postal": 2360,
        "source": "DEA",
        "source_date": "Dec2018",
        "state": "MA"
    },
    {
        "address": "171 NORTH MAIN STREET, RANDOLPH, MA 02368",
        "googleMapsUrl": "http://maps.google.com/maps?q=CVS%20PHARMACY%20INC%2C171%20NORTH%20MAIN%20STREET%2C+RANDOLPH%2C+MA+02368",
        "lat": 42.16536,
        "lng": -71.04311,
        "name": "CVS PHARMACY, INC.",
        "postal": 2368,
        "source": "DEA",
        "source_date": "Dec2018",
        "state": "MA"
    },
    {
        "address": "170 N MAIN STREET, RANDOLPH, MA 02368",
        "googleMapsUrl": "http://maps.google.com/maps?q=WALGREEN%20EASTERN%20CO%20INC%2C170%20N%20MAIN%20STREET%2C+RANDOLPH%2C+MA+02368",
        "lat": 42.165718,
        "lng": -71.04337,
        "name": "WALGREEN EASTERN CO., INC.",
        "postal": 2368,
        "source": "DEA",
        "source_date": "Dec2018",
        "state": "MA"
    },
    {
        "address": "12 HARVARD ST., WALTHAM, MA 02453",
        "googleMapsUrl": "http://maps.google.com/maps?q=CVS%20PHARMACY%20INC%2C12%20HARVARD%20ST.%2C+WALTHAM%2C+MA+02453",
        "lat": 42.375847,
        "lng": -71.24380500000001,
        "name": "CVS PHARMACY, INC.",
        "postal": 2453,
        "source": "DEA",
        "source_date": "Dec2018",
        "state": "MA"
    },
    {
        "address": "ATTN PHARMACY, 2014 WASHINGTON ST, NEWTON LOWER FALLS, MA 02462",
        "googleMapsUrl": "http://maps.google.com/maps?q=NEWTONWELLESLEY%20HOSPITAL%2CATTN%20PHARMACY%2C+NEWTON%20LOWER%20FALLS%2C+MA+02462",
        "lat": 42.3241175,
        "lng": -71.1031663,
        "name": "NEWTON-WELLESLEY HOSPITAL",
        "postal": 2462,
        "source": "DEA",
        "source_date": "Dec2018",
        "state": "MA"
    },
    {
        "address": "850 BOYLSTON STREET, DELIVER TO PHARMACY DEPT, 75 F, CHESTNUT HILL, MA 02467",
        "googleMapsUrl": "http://maps.google.com/maps?q=BRIGHAM%20AND%20WOMENS%20HOSPITAL%2C850%20BOYLSTON%20STREET%2C+CHESTNUT%20HILL%2C+MA+02467",
        "lat": 42.3360919,
        "lng": -71.10670470000001,
        "name": "BRIGHAM AND WOMEN'S HOSPITAL",
        "postal": 2467,
        "source": "DEA",
        "source_date": "Dec2018",
        "state": "MA"
    },
    {
        "address": "27-43 MAIN STREET, WATERTOWN, MA 02472",
        "googleMapsUrl": "http://maps.google.com/maps?q=CVS%20PHARMACY%20INC%2C27-43%20MAIN%20STREET%2C+WATERTOWN%2C+MA+02472",
        "lat": 42.366318,
        "lng": -71.18585,
        "name": "CVS PHARMACY, INC.",
        "postal": 2472,
        "source": "DEA",
        "source_date": "Dec2018",
        "state": "MA"
    },
    {
        "address": "PHARMACY DIRECTOR, 115 MILL STREET, BELMONT, MA 02478",
        "googleMapsUrl": "http://maps.google.com/maps?q=MC%20LEAN%20HOSPITAL%2CPHARMACY%20DIRECTOR%2C+BELMONT%2C+MA+02478",
        "lat": 42.39499,
        "lng": -71.192161,
        "name": "MC LEAN HOSPITAL",
        "postal": 2478,
        "source": "DEA",
        "source_date": "Dec2018",
        "state": "MA"
    },
    {
        "address": "100 TER HEUN DRIVE, FALMOUTH, MA 02540",
        "googleMapsUrl": "http://maps.google.com/maps?q=CAPE%20COD%20HEALTHCARE%20PHARMACY%20AT%20FALMOUTH%20HOSPITAL%2C100%20TER%20HEUN%20DRIVE%2C+FALMOUTH%2C+MA+02540",
        "lat": 41.564934,
        "lng": -70.62106,
        "name": "CAPE COD HEALTHCARE PHARMACY AT FALMOUTH HOSPITAL",
        "postal": 2540,
        "source": "DEA",
        "source_date": "Dec2018",
        "state": "MA"
    },
    {
        "address": "105 DAVIS STRAITS, FALMOUTH, MA 02540",
        "googleMapsUrl": "http://maps.google.com/maps?q=CVS%20PHARMACY%20INC%2C105%20DAVIS%20STRAITS%2C+FALMOUTH%2C+MA+02540",
        "lat": 41.5601785,
        "lng": -70.5987557,
        "name": "CVS PHARMACY, INC.",
        "postal": 2540,
        "source": "DEA",
        "source_date": "Dec2018",
        "state": "MA"
    },
    {
        "address": "1 HOSPITAL ROAD, P.O. BOX 1477, OAK BLUFFS, MA 02557",
        "googleMapsUrl": "http://maps.google.com/maps?q=MARTHAS%20VINEYARD%20HOSPITAL%2C1%20HOSPITAL%20ROAD%2C+OAK%20BLUFFS%2C+MA+02557",
        "lat": 41.460747,
        "lng": -70.580414,
        "name": "MARTHA'S VINEYARD HOSPITAL",
        "postal": 2557,
        "source": "DEA",
        "source_date": "Dec2018",
        "state": "MA"
    },
    {
        "address": "27 PARK STREET, HYANNIS, MA 02601",
        "googleMapsUrl": "http://maps.google.com/maps?q=CAPE%20COD%20HEALTHCARE%20PHARMACY%20AT%20CCH%2C27%20PARK%20STREET%2C+HYANNIS%2C+MA+02601",
        "lat": 41.654377000000004,
        "lng": -70.273544,
        "name": "CAPE COD HEALTHCARE PHARMACY AT CCH",
        "postal": 2601,
        "source": "DEA",
        "source_date": "Dec2018",
        "state": "MA"
    },
    {
        "address": "176 NORTH STREET, HYANNIS, MA 02601",
        "googleMapsUrl": "http://maps.google.com/maps?q=CVS%20PHARMACY%20INC%2C176%20NORTH%20STREET%2C+HYANNIS%2C+MA+02601",
        "lat": 41.65217,
        "lng": -70.28901,
        "name": "CVS PHARMACY, INC.",
        "postal": 2601,
        "source": "DEA",
        "source_date": "Dec2018",
        "state": "MA"
    },
    {
        "address": "1620 PRESIDENT AVENUE, FALL RIVER, MA 02720",
        "googleMapsUrl": "http://maps.google.com/maps?q=CVS%20PHARMACY%20INC%2C1620%20PRESIDENT%20AVENUE%2C+FALL%20RIVER%2C+MA+02720",
        "lat": 41.711945,
        "lng": -71.126976,
        "name": "CVS PHARMACY, INC.",
        "postal": 2720,
        "source": "DEA",
        "source_date": "Dec2018",
        "state": "MA"
    },
    {
        "address": "369 PLYMOUTH AVE, FALL RIVER, MA 02721",
        "googleMapsUrl": "http://maps.google.com/maps?q=WALGREEN%20EASTERN%20CO%20INC%2C369%20PLYMOUTH%20AVE%2C+FALL%20RIVER%2C+MA+02721",
        "lat": 41.695609999999995,
        "lng": -71.152054,
        "name": "WALGREEN EASTERN CO., INC.",
        "postal": 2721,
        "source": "DEA",
        "source_date": "Dec2018",
        "state": "MA"
    },
    {
        "address": "1145 KEMPTON STREET, NEW BEDFORD, MA 02740",
        "googleMapsUrl": "http://maps.google.com/maps?q=CVS%20PHARMACY%20INC%2C1145%20KEMPTON%20STREET%2C+NEW%20BEDFORD%2C+MA+02740",
        "lat": 41.6369799,
        "lng": -70.9565245,
        "name": "CVS PHARMACY, INC.",
        "postal": 2740,
        "source": "DEA",
        "source_date": "Dec2018",
        "state": "MA"
    },
    {
        "address": "495 STATE RD., NORTH DARTMOUTH, MA 02747",
        "googleMapsUrl": "http://maps.google.com/maps?q=WALGREEN%20EASTERN%20CO%20INC%2C495%20STATE%20RD.%2C+NORTH%20DARTMOUTH%2C+MA+02747",
        "lat": 41.640903,
        "lng": -71.00703399999999,
        "name": "WALGREEN EASTERN CO., INC.",
        "postal": 2747,
        "source": "DEA",
        "source_date": "Dec2018",
        "state": "MA"
    },
    {
        "address": "8 EAST WASHINGTON STREET, NORTH ATTLEBORO, MA 02760",
        "googleMapsUrl": "http://maps.google.com/maps?q=CVS%20PHARMACY%20INC%2C8%20EAST%20WASHINGTON%20STREET%2C+NORTH%20ATTLEBORO%2C+MA+02760",
        "lat": 41.96578,
        "lng": -71.33919,
        "name": "CVS PHARMACY, INC.",
        "postal": 2760,
        "source": "DEA",
        "source_date": "Dec2018",
        "state": "MA"
    },
    {
        "address": "284 WINTHROP ST., TAUNTON PLZ, TAUNTON, MA 02780",
        "googleMapsUrl": "http://maps.google.com/maps?q=CVS%20PHARMACY%20INC%2C284%20WINTHROP%20ST.%2C+TAUNTON%2C+MA+02780",
        "lat": 41.889107,
        "lng": -71.12004,
        "name": "CVS PHARMACY, INC.",
        "postal": 2780,
        "source": "DEA",
        "source_date": "Dec2018",
        "state": "MA"
    },
    {
        "address": "3986 OLD POST RD., CHARLESTOWN, RI 02813",
        "googleMapsUrl": "http://maps.google.com/maps?q=RHODE%20ISLAND%20CVS%20PHARMACY%20LLC%2C3986%20OLD%20POST%20RD.%2C+CHARLESTOWN%2C+RI+02813",
        "lat": 41.3872225789,
        "lng": -71.6253983684,
        "name": "RHODE ISLAND CVS PHARMACY, L.L.C.",
        "postal": 2813,
        "source": "DEA",
        "source_date": "April2018",
        "state": "RI"
    },
    {
        "address": "763 TIOGUE AVENUE, COVENTRY, RI 02816",
        "googleMapsUrl": "http://maps.google.com/maps?q=RHODE%20ISLAND%20CVS%20PHARMACY%20LLC%2C763%20TIOGUE%20AVENUE%2C+COVENTRY%2C+RI+02816",
        "lat": 41.6822077143,
        "lng": -71.562527305,
        "name": "RHODE ISLAND CVS PHARMACY, L.L.C.",
        "postal": 2816,
        "source": "DEA",
        "source_date": "April2018",
        "state": "RI"
    },
    {
        "address": "287 BROADWAY, NEWPORT, RI 02840",
        "googleMapsUrl": "http://maps.google.com/maps?q=RHODE%20ISLAND%20CVS%20PHARMACY%20LLC%2C287%20BROADWAY%2C+NEWPORT%2C+RI+02840",
        "lat": 41.4977607446,
        "lng": -71.3076707535,
        "name": "RHODE ISLAND CVS PHARMACY, L.L.C.",
        "postal": 2840,
        "source": "DEA",
        "source_date": "April2018",
        "state": "RI"
    },
    {
        "address": "BLDG 23, 43 SMITH ROAD, NEWPORT, RI 02841",
        "googleMapsUrl": "http://maps.google.com/maps?q=USN%20NAVAL%20HEALTH%20CLINIC%20NEW%20ENGLAND%2CBLDG%2023%2C+NEWPORT%2C+RI+02841",
        "lat": 41.50392,
        "lng": -71.321896,
        "name": "USN- NAVAL HEALTH CLINIC NEW ENGLAND",
        "postal": 2841,
        "source": "DEA",
        "source_date": "Dec2018",
        "state": "RI"
    },
    {
        "address": "99 EAST MAIN ROAD, MIDDLETOWN, RI 02842",
        "googleMapsUrl": "http://maps.google.com/maps?q=RHODE%20ISLAND%20CVS%20PHARMACY%20LLC%2C99%20EAST%20MAIN%20ROAD%2C+MIDDLETOWN%2C+RI+02842",
        "lat": 41.517943,
        "lng": -71.296166,
        "name": "RHODE ISLAND CVS PHARMACY, L.L.C.",
        "postal": 2842,
        "source": "DEA",
        "source_date": "April2018",
        "state": "RI"
    },
    {
        "address": "100 BROAD ST, PAWTUCKET, RI 02860",
        "googleMapsUrl": "http://maps.google.com/maps?q=WALGREEN%20EASTERN%20CO%20INC%2C100%20BROAD%20ST%2C+PAWTUCKET%2C+RI+02860",
        "lat": 41.879940000000005,
        "lng": -71.38644000000001,
        "name": "WALGREEN EASTERN CO., INC.",
        "postal": 2860,
        "source": "DEA",
        "source_date": "Dec2018",
        "state": "RI"
    },
    {
        "address": "835 NEWPORT AVE., PAWTUCKET, RI 02861",
        "googleMapsUrl": "http://maps.google.com/maps?q=RHODE%20ISLAND%20CVS%20PHARMACY%20LLC%2C835%20NEWPORT%20AVE.%2C+PAWTUCKET%2C+RI+02861",
        "lat": 41.89638239999999,
        "lng": -71.3544821,
        "name": "RHODE ISLAND CVS PHARMACY, L.L.C.",
        "postal": 2861,
        "source": "DEA",
        "source_date": "April2018",
        "state": "RI"
    },
    {
        "address": "11 MAIN ST., WAKEFIELD, RI 02879",
        "googleMapsUrl": "http://maps.google.com/maps?q=RHODE%20ISLAND%20CVS%20PHARMACY%20LLC%2C11%20MAIN%20ST.%2C+WAKEFIELD%2C+RI+02879",
        "lat": 41.441315973,
        "lng": -71.4911768649,
        "name": "RHODE ISLAND CVS PHARMACY, L.L.C.",
        "postal": 2879,
        "source": "DEA",
        "source_date": "April2018",
        "state": "RI"
    },
    {
        "address": "767 WARWICK AVENUE, WARWICK, RI 02888",
        "googleMapsUrl": "http://maps.google.com/maps?q=RHODE%20ISLAND%20CVS%20PHARMACY%20LLC%2C767%20WARWICK%20AVENUE%2C+WARWICK%2C+RI+02888",
        "lat": 41.7542840204,
        "lng": -71.4044217143,
        "name": "RHODE ISLAND CVS PHARMACY, L.L.C.",
        "postal": 2888,
        "source": "DEA",
        "source_date": "April2018",
        "state": "RI"
    },
    {
        "address": "2400 WARWICK AVE, MEADOWBROOK PLAZA, WARWICK, RI 02889",
        "googleMapsUrl": "http://maps.google.com/maps?q=RHODE%20ISLAND%20CVS%20PHARMACY%20LLC%2C2400%20WARWICK%20AVE%2C+WARWICK%2C+RI+02889",
        "lat": 41.70946,
        "lng": -71.39796,
        "name": "RHODE ISLAND CVS PHARMACY, L.L.C.",
        "postal": 2889,
        "source": "DEA",
        "source_date": "April2018",
        "state": "RI"
    },
    {
        "address": "224 POST RD, UNIT 7, WESTERLY, RI 02891",
        "googleMapsUrl": "http://maps.google.com/maps?q=QRX%20INC%2C224%20POST%20RD%2C+WESTERLY%2C+RI+02891",
        "lat": 41.351166,
        "lng": -71.77215,
        "name": "QRX INC",
        "postal": 2891,
        "source": "DEA",
        "source_date": "Dec2018",
        "state": "RI"
    },
    {
        "address": "150 GRANITE STREET, WESTERLY, RI 02891",
        "googleMapsUrl": "http://maps.google.com/maps?q=RHODE%20ISLAND%20CVS%20PHARMACY%20LLC%2C150%20GRANITE%20STREET%2C+WESTERLY%2C+RI+02891",
        "lat": 41.3693562521,
        "lng": -71.8197826328,
        "name": "RHODE ISLAND CVS PHARMACY, L.L.C.",
        "postal": 2891,
        "source": "DEA",
        "source_date": "April2018",
        "state": "RI"
    },
    {
        "address": "120 EDDIE DOWLING HWY., NORTH SMITHFIELD, RI 02896",
        "googleMapsUrl": "http://maps.google.com/maps?q=RHODE%20ISLAND%20CVS%20PHARMACY%20LLC%2C120%20EDDIE%20DOWLING%20HWY.%2C+NORTH%20SMITHFIELD%2C+RI+02896",
        "lat": 41.9811815148,
        "lng": -71.5139161162,
        "name": "RHODE ISLAND CVS PHARMACY, L.L.C.",
        "postal": 2896,
        "source": "DEA",
        "source_date": "April2018",
        "state": "RI"
    },
    {
        "address": "1919 MINERAL SPRING AVENUE, NORTH PROVIDENCE, RI 02904",
        "googleMapsUrl": "http://maps.google.com/maps?q=RHODE%20ISLAND%20CVS%20PHARMACY%20LLC%2C1919%20MINERAL%20SPRING%20AVENUE%2C+NORTH%20PROVIDENCE%2C+RI+02904",
        "lat": 41.8600533395,
        "lng": -71.4694816354,
        "name": "RHODE ISLAND CVS PHARMACY, L.L.C.",
        "postal": 2904,
        "source": "DEA",
        "source_date": "April2018",
        "state": "RI"
    },
    {
        "address": "533 ELMWOOD AVE., PROVIDENCE, RI 02907",
        "googleMapsUrl": "http://maps.google.com/maps?q=WALGREEN%20EASTERN%20CO%20INC%2C533%20ELMWOOD%20AVE.%2C+PROVIDENCE%2C+RI+02907",
        "lat": 41.798027000000005,
        "lng": -71.42622,
        "name": "WALGREEN EASTERN CO., INC.",
        "postal": 2907,
        "source": "DEA",
        "source_date": "Dec2018",
        "state": "RI"
    },
    {
        "address": "681 RESERVOIR AVENUE, CRANSTON, RI 02910",
        "googleMapsUrl": "http://maps.google.com/maps?q=RHODE%20ISLAND%20CVS%20PHARMACY%20LLC%2C681%20RESERVOIR%20AVENUE%2C+CRANSTON%2C+RI+02910",
        "lat": 41.781555,
        "lng": -71.44059,
        "name": "RHODE ISLAND CVS PHARMACY, L.L.C.",
        "postal": 2910,
        "source": "DEA",
        "source_date": "Dec2018",
        "state": "RI"
    },
    {
        "address": "640 WARREN AVENUE, EAST PROVIDENCE, RI 02914",
        "googleMapsUrl": "http://maps.google.com/maps?q=RHODE%20ISLAND%20CVS%20PHARMACY%20LLC%2C640%20WARREN%20AVENUE%2C+EAST%20PROVIDENCE%2C+RI+02914",
        "lat": 41.8104114444,
        "lng": -71.3554154444,
        "name": "RHODE ISLAND CVS PHARMACY, L.L.C.",
        "postal": 2914,
        "source": "DEA",
        "source_date": "April2018",
        "state": "RI"
    },
    {
        "address": "1400 HARTFORD AVENUE, JOHNSTON, RI 02919",
        "googleMapsUrl": "http://maps.google.com/maps?q=RHODE%20ISLAND%20CVS%20PHARMACY%20LLC%2C1400%20HARTFORD%20AVENUE%2C+JOHNSTON%2C+RI+02919",
        "lat": 41.823767,
        "lng": -71.498786,
        "name": "RHODE ISLAND CVS PHARMACY, L.L.C.",
        "postal": 2919,
        "source": "DEA",
        "source_date": "April2018",
        "state": "RI"
    },
    {
        "address": "242 MAIN STREET, NASHUA, NH 03060",
        "googleMapsUrl": "http://maps.google.com/maps?q=CVS%20MANCHESTER%20NH%20LLC%2C242%20MAIN%20STREET%2C+NASHUA%2C+NH+03060",
        "lat": 42.7575078,
        "lng": -71.4634922,
        "name": "CVS MANCHESTER NH, L.L.C.",
        "postal": 3060,
        "source": "DEA",
        "source_date": "April2018",
        "state": "NH"
    },
    {
        "address": "ATTN PHARMACY, 172 KINSLEY ST, NASHUA, NH 03060",
        "googleMapsUrl": "http://maps.google.com/maps?q=SAINT%20JOSEPHS%20HOSPITAL%2CATTN%20PHARMACY%2C+NASHUA%2C+NH+03060",
        "lat": 42.749168,
        "lng": -71.48021,
        "name": "SAINT JOSEPH'S HOSPITAL",
        "postal": 3060,
        "source": "DEA",
        "source_date": "Dec2018",
        "state": "NH"
    },
    {
        "address": "283 MAIN ST, NASHUA, NH 03060",
        "googleMapsUrl": "http://maps.google.com/maps?q=WALGREEN%20EASTERN%20CO%20INC%2C283%20MAIN%20ST%2C+NASHUA%2C+NH+03060",
        "lat": 42.75441,
        "lng": -71.46240999999999,
        "name": "WALGREEN EASTERN CO., INC.",
        "postal": 3060,
        "source": "DEA",
        "source_date": "Dec2018",
        "state": "NH"
    },
    {
        "address": "8 PROSPECT ST, BOX 2014, NASHUA, NH 03061",
        "googleMapsUrl": "http://maps.google.com/maps?q=NASHUA%20HOSPITAL%20ASSOC%2C8%20PROSPECT%20ST%2C+NASHUA%2C+NH+03061",
        "lat": 42.756271000000005,
        "lng": -71.4621,
        "name": "NASHUA HOSPITAL ASSOC",
        "postal": 3061,
        "source": "DEA",
        "source_date": "Dec2018",
        "state": "NH"
    },
    {
        "address": "100 MCGREGOR STREET, MANCHESTER, NH 03102",
        "googleMapsUrl": "http://maps.google.com/maps?q=CATHOLIC%20MEDICAL%20CENTER%20HOSP%2C100%20MCGREGOR%20STREET%2C+MANCHESTER%2C+NH+03102",
        "lat": 42.99111,
        "lng": -71.47379000000001,
        "name": "CATHOLIC MEDICAL CENTER HOSP",
        "postal": 3102,
        "source": "DEA",
        "source_date": "Dec2018",
        "state": "NH"
    },
    {
        "address": "80 HIGHLAND STREET, LACONIA, NH 03246",
        "googleMapsUrl": "http://maps.google.com/maps?q=LAKES%20REGION%20GENERAL%20HOSPITAL%2C80%20HIGHLAND%20STREET%2C+LACONIA%2C+NH+03246",
        "lat": 43.527912,
        "lng": -71.46084,
        "name": "LAKES REGION GENERAL HOSPITAL",
        "postal": 3246,
        "source": "DEA",
        "source_date": "Dec2018",
        "state": "NH"
    },
    {
        "address": "PO BOX 10, 82 NEWPORT RD, NEW LONDON, NH 03257",
        "googleMapsUrl": "http://maps.google.com/maps?q=FIRST%20COLONY%20CORP%2CPO%20BOX%2010%2C+NEW%20LONDON%2C+NH+03257",
        "lat": 43.421767200000005,
        "lng": -71.9968423,
        "name": "FIRST COLONY CORP",
        "postal": 3257,
        "source": "DEA",
        "source_date": "April2018",
        "state": "NH"
    },
    {
        "address": "268 WEST ST., KEENE, NH 03431",
        "googleMapsUrl": "http://maps.google.com/maps?q=CVS%20MANCHESTER%20NH%20LLC%2C268%20WEST%20ST.%2C+KEENE%2C+NH+03431",
        "lat": 42.9324453684,
        "lng": -72.2882031579,
        "name": "CVS MANCHESTER NH, L.L.C.",
        "postal": 3431,
        "source": "DEA",
        "source_date": "April2018",
        "state": "NH"
    },
    {
        "address": "440 WEST ST, KEENE, NH 03431",
        "googleMapsUrl": "http://maps.google.com/maps?q=WALGREEN%20EASTERN%20CO%20INC%2C440%20WEST%20ST%2C+KEENE%2C+NH+03431",
        "lat": 42.933525,
        "lng": -72.29496,
        "name": "WALGREEN EASTERN CO., INC.",
        "postal": 3431,
        "source": "DEA",
        "source_date": "Dec2018",
        "state": "NH"
    },
    {
        "address": "5 ROPE FERRY RD., HANOVER, NH 03755",
        "googleMapsUrl": "http://maps.google.com/maps?q=DICK%20HALLS%20HOUSE%20PHARMACY%2C5%20ROPE%20FERRY%20RD.%2C+HANOVER%2C+NH+03755",
        "lat": 43.7084513,
        "lng": -72.28720182100001,
        "name": "DICK HALL'S HOUSE PHARMACY",
        "postal": 3755,
        "source": "DEA",
        "source_date": "April2018",
        "state": "NH"
    },
    {
        "address": "ONE MEDICAL CENTER DRIVE, LEBANON, NH 03756",
        "googleMapsUrl": "http://maps.google.com/maps?q=DARTMOUTHHITCHCOCK%20PHARMACY%2CONE%20MEDICAL%20CENTER%20DRIVE%2C+LEBANON%2C+NH+03756",
        "lat": 43.676175799999996,
        "lng": -72.2753515,
        "name": "DARTMOUTH-HITCHCOCK PHARMACY",
        "postal": 3756,
        "source": "DEA",
        "source_date": "April2018",
        "state": "NH"
    },
    {
        "address": "12 CENTERRA PARKWAY, LEBANON, NH 03766",
        "googleMapsUrl": "http://maps.google.com/maps?q=DARTMOUTH%20HITCHCOCK%20PHARMACY%20AT%20CENTERRA%2C12%20CENTERRA%20PARKWAY%2C+LEBANON%2C+NH+03766",
        "lat": 43.6744643333,
        "lng": -72.2612493333,
        "name": "DARTMOUTH HITCHCOCK PHARMACY AT CENTERRA",
        "postal": 3766,
        "source": "DEA",
        "source_date": "April2018",
        "state": "NH"
    },
    {
        "address": "3 AIRPORT RD, WEST LEBANON, NH 03784",
        "googleMapsUrl": "http://maps.google.com/maps?q=WALGREEN%20EASTERN%20CO%20INC%2C3%20AIRPORT%20RD%2C+WEST%20LEBANON%2C+NH+03784",
        "lat": 43.629246,
        "lng": -72.32051,
        "name": "WALGREEN EASTERN CO., INC.",
        "postal": 3784,
        "source": "DEA",
        "source_date": "Dec2018",
        "state": "NH"
    },
    {
        "address": "789 CENTRAL AVE, DOVER, NH 03820",
        "googleMapsUrl": "http://maps.google.com/maps?q=WENTWORTH%20DOUGLASS%20HOSPITAL%2C789%20CENTRAL%20AVE%2C+DOVER%2C+NH+03820",
        "lat": 43.213840999999995,
        "lng": -70.87642840000001,
        "name": "WENTWORTH DOUGLASS HOSPITAL",
        "postal": 3820,
        "source": "DEA",
        "source_date": "Dec2018",
        "state": "NH"
    },
    {
        "address": "104 S MAIN STREET, ROCHESTER, NH 03867",
        "googleMapsUrl": "http://maps.google.com/maps?q=WALGREEN%20EASTERN%20CO%20INC%2C104%20S%20MAIN%20STREET%2C+ROCHESTER%2C+NH+03867",
        "lat": 43.298953999999995,
        "lng": -70.9697,
        "name": "WALGREEN EASTERN CO., INC.",
        "postal": 3867,
        "source": "DEA",
        "source_date": "Dec2018",
        "state": "NH"
    },
    {
        "address": "3 BUSINESS PARKWAY, SUITE 2, BRUNSWICK, ME 04011",
        "googleMapsUrl": "http://maps.google.com/maps?q=GUARDIAN%20PHARMACY%20OF%20MAINE%20LLC%2C3%20BUSINESS%20PARKWAY%2C%20SUITE%202%2C+BRUNSWICK%2C+ME+04011",
        "lat": 43.907619,
        "lng": -70.00239599999999,
        "name": "GUARDIAN PHARMACY OF MAINE, LLC",
        "postal": 4011,
        "source": "DEA",
        "source_date": "Dec2018",
        "state": "ME"
    },
    {
        "address": "53 PARIS ST, NORWAY, ME 04268",
        "googleMapsUrl": "http://maps.google.com/maps?q=WALGREEN%20EASTERN%20CO%20INC%2C53%20PARIS%20ST%2C+NORWAY%2C+ME+04268",
        "lat": 44.212579999999996,
        "lng": -70.5292,
        "name": "WALGREEN EASTERN CO., INC.",
        "postal": 4268,
        "source": "DEA",
        "source_date": "Dec2018",
        "state": "ME"
    },
    {
        "address": "111 FRANKLIN HEALTH COMMONS, FARMINGTON, ME 04938",
        "googleMapsUrl": "http://maps.google.com/maps?q=FRANKLIN%20MEMORIAL%20HOSPITAL%2C111%20FRANKLIN%20HEALTH%20COMMONS%2C+FARMINGTON%2C+ME+04938",
        "lat": 44.6264756,
        "lng": -70.16299140000001,
        "name": "FRANKLIN MEMORIAL HOSPITAL",
        "postal": 4938,
        "source": "DEA",
        "source_date": "Dec2018",
        "state": "ME"
    },
    {
        "address": "46 FAIRVIEW AVENUE, PO BOX 468, SKOWHEGAN, ME 04976",
        "googleMapsUrl": "http://maps.google.com/maps?q=REDINGTONFAIRVIEW%20GEN%20HOSP%2C46%20FAIRVIEW%20AVENUE%2C%20PO%20BOX%20468%2C+SKOWHEGAN%2C+ME+04976",
        "lat": 44.75888,
        "lng": -69.713075,
        "name": "REDINGTON-FAIRVIEW GEN HOSP",
        "postal": 4976,
        "source": "DEA",
        "source_date": "Dec2018",
        "state": "ME"
    },
    {
        "address": "44 SOUTH MAIN ST, RANDOLPH, VT 05060",
        "googleMapsUrl": "http://maps.google.com/maps?q=GIFFORD%20MEMORIAL%20HOSPITAL%20INC%2C44%20SOUTH%20MAIN%20ST%2C+RANDOLPH%2C+VT+05060",
        "lat": 43.917103000000004,
        "lng": -72.66611999999999,
        "name": "GIFFORD MEMORIAL HOSPITAL INC",
        "postal": 5060,
        "source": "DEA",
        "source_date": "Dec2018",
        "state": "VT"
    },
    {
        "address": "78 ATKINSON ST, BELLOWS FALLS, VT 05101",
        "googleMapsUrl": "http://maps.google.com/maps?q=GREATER%20FALLS%20PHARMACY%2C78%20ATKINSON%20ST%2C+BELLOWS%20FALLS%2C+VT+05101",
        "lat": 43.133934,
        "lng": -72.45026,
        "name": "GREATER FALLS PHARMACY",
        "postal": 5101,
        "source": "DEA",
        "source_date": "Dec2018",
        "state": "VT"
    },
    {
        "address": "57 POND ST, LUDLOW, VT 05149",
        "googleMapsUrl": "http://maps.google.com/maps?q=LUDLOW%20PHARMACY%20INC%2C57%20POND%20ST%2C+LUDLOW%2C+VT+05149",
        "lat": 43.406490000000005,
        "lng": -72.71748000000001,
        "name": "LUDLOW PHARMACY INC.",
        "postal": 5149,
        "source": "DEA",
        "source_date": "Dec2018",
        "state": "VT"
    },
    {
        "address": "262 RIVER STREET, SPRINGFIELD, VT 05156",
        "googleMapsUrl": "http://maps.google.com/maps?q=SPRINGFIELD%20PHARMACY%20INC%2C262%20RIVER%20STREET%2C+SPRINGFIELD%2C+VT+05156",
        "lat": 43.3111,
        "lng": -72.498985,
        "name": "SPRINGFIELD PHARMACY INC",
        "postal": 5156,
        "source": "DEA",
        "source_date": "Dec2018",
        "state": "VT"
    },
    {
        "address": "100 HOSPITAL DRIVE, BENNINGTON, VT 05201",
        "googleMapsUrl": "http://maps.google.com/maps?q=SOUTHWESTERN%20VERMONT%20MEDICAL%20CENTER%2C100%20HOSPITAL%20DRIVE%2C+BENNINGTON%2C+VT+05201",
        "lat": 42.873928,
        "lng": -73.20435,
        "name": "SOUTHWESTERN VERMONT MEDICAL CENTER",
        "postal": 5201,
        "source": "DEA",
        "source_date": "Dec2018",
        "state": "VT"
    },
    {
        "address": "34 WAYS LANE, MANCHESTER CENTER, VT 05255",
        "googleMapsUrl": "http://maps.google.com/maps?q=THE%20PHARMACY%20%20NORTHSHIRE%20LLC%2C34%20WAYS%20LANE%2C+MANCHESTER%20CENTER%2C+VT+05255",
        "lat": 43.17215,
        "lng": -73.06419,
        "name": "THE PHARMACY - NORTHSHIRE, LLC",
        "postal": 5255,
        "source": "DEA",
        "source_date": "Dec2018",
        "state": "VT"
    },
    {
        "address": "PHARMACY DEPT., 17 BELMONT AVE., BRATTLEBORO, VT 05301",
        "googleMapsUrl": "http://maps.google.com/maps?q=BRATTLEBORO%20MEMORIAL%20HOSP%2CPHARMACY%20DEPT.%2C+BRATTLEBORO%2C+VT+05301",
        "lat": 42.8409809,
        "lng": -72.56460909999998,
        "name": "BRATTLEBORO MEMORIAL HOSP",
        "postal": 5301,
        "source": "DEA",
        "source_date": "Dec2018",
        "state": "VT"
    },
    {
        "address": "20 ELLIOT ST, BRATTLEBORO, VT 05301",
        "googleMapsUrl": "http://maps.google.com/maps?q=HOTEL%20PHARMACY%2C20%20ELLIOT%20ST%2C+BRATTLEBORO%2C+VT+05301",
        "lat": 42.852077,
        "lng": -72.5585,
        "name": "HOTEL PHARMACY",
        "postal": 5301,
        "source": "DEA",
        "source_date": "Dec2018",
        "state": "VT"
    },
    {
        "address": "242 PEARL ST, BURLINGTON, VT 05401",
        "googleMapsUrl": "http://maps.google.com/maps?q=LAKESIDE%20PHARMACY%20INC%2C242%20PEARL%20ST%2C+BURLINGTON%2C+VT+05401",
        "lat": 44.480587,
        "lng": -73.20900999999999,
        "name": "LAKESIDE PHARMACY INC",
        "postal": 5401,
        "source": "DEA",
        "source_date": "Dec2018",
        "state": "VT"
    },
    {
        "address": "1 SOUTH PROSPECT STREET, BURLINGTON, VT 05401",
        "googleMapsUrl": "http://maps.google.com/maps?q=UNIVERSITY%20OF%20VERMONT%20MEDICAL%20CENTER%2C1%20SOUTH%20PROSPECT%20STREET%2C+BURLINGTON%2C+VT+05401",
        "lat": 44.480698,
        "lng": -73.20062,
        "name": "UNIVERSITY OF VERMONT MEDICAL CENTER",
        "postal": 5401,
        "source": "DEA",
        "source_date": "Dec2018",
        "state": "VT"
    },
    {
        "address": "111 COLCHESTER AVENUE, BURLINGTON, VT 05401",
        "googleMapsUrl": "http://maps.google.com/maps?q=UNIVERSITY%20OF%20VERMONT%20MEDICAL%20CENTER%2C111%20COLCHESTER%20AVENUE%2C+BURLINGTON%2C+VT+05401",
        "lat": 44.480686,
        "lng": -73.19725,
        "name": "UNIVERSITY OF VERMONT MEDICAL CENTER",
        "postal": 5401,
        "source": "DEA",
        "source_date": "Dec2018",
        "state": "VT"
    },
    {
        "address": "514 FARRELL ST., BURLINGTON, VT 05401",
        "googleMapsUrl": "http://maps.google.com/maps?q=WALGREEN%20EASTERN%20CO%20INC%2C514%20FARRELL%20ST.%2C+BURLINGTON%2C+VT+05401",
        "lat": 44.45066,
        "lng": -73.208045,
        "name": "WALGREEN EASTERN CO., INC.",
        "postal": 5401,
        "source": "DEA",
        "source_date": "Dec2018",
        "state": "VT"
    },
    {
        "address": "1219 NORTH AVENUE, BURLINGTON, VT 05408",
        "googleMapsUrl": "http://maps.google.com/maps?q=VERMONT%20FAMILY%20PHARMACY%20INC%2C1219%20NORTH%20AVENUE%2C+BURLINGTON%2C+VT+05408",
        "lat": 44.508565999999995,
        "lng": -73.24745030390001,
        "name": "VERMONT FAMILY PHARMACY INC",
        "postal": 5408,
        "source": "DEA",
        "source_date": "April2018",
        "state": "VT"
    },
    {
        "address": "61 PINE STREET, SUITE 401, BRISTOL, VT 05443",
        "googleMapsUrl": "http://maps.google.com/maps?q=MARBLE%20WORKS%20PHARMACY%2C61%20PINE%20STREET%2C+BRISTOL%2C+VT+05443",
        "lat": 44.138615,
        "lng": -73.08788,
        "name": "MARBLE WORKS PHARMACY",
        "postal": 5443,
        "source": "DEA",
        "source_date": "Dec2018",
        "state": "VT"
    },
    {
        "address": "792 COLLEGE PARKWAY SUITE 103, COLCHESTER, VT 05446",
        "googleMapsUrl": "http://maps.google.com/maps?q=UNIVERSITY%20OF%20VERMONT%20MEDICAL%20CENTER%2C792%20COLLEGE%20PARKWAY%20SUITE%20103%2C+COLCHESTER%2C+VT+05446",
        "lat": 44.4967782,
        "lng": -73.15703549999999,
        "name": "UNIVERSITY OF VERMONT MEDICAL CENTER",
        "postal": 5446,
        "source": "DEA",
        "source_date": "Dec2018",
        "state": "VT"
    },
    {
        "address": "44 MAIN STREET, SUITE 201, RICHFORD, VT 05476",
        "googleMapsUrl": "http://maps.google.com/maps?q=RICHFORD%20HEALTH%20CENTER%20INC%2C44%20MAIN%20STREET%2C+RICHFORD%2C+VT+05476",
        "lat": 44.99568,
        "lng": -72.67261500000001,
        "name": "RICHFORD HEALTH CENTER INC",
        "postal": 5476,
        "source": "DEA",
        "source_date": "Dec2018",
        "state": "VT"
    },
    {
        "address": "133 FAIRFIELD STREET, ST ALBANS, VT 05478",
        "googleMapsUrl": "http://maps.google.com/maps?q=NORTHWESTERN%20MEDICAL%20CTR%20INC%2C133%20FAIRFIELD%20STREET%2C+ST%20ALBANS%2C+VT+05478",
        "lat": 44.807767999999996,
        "lng": -73.072321,
        "name": "NORTHWESTERN MEDICAL CTR, INC",
        "postal": 5478,
        "source": "DEA",
        "source_date": "Dec2018",
        "state": "VT"
    },
    {
        "address": "330-334 ROUTE 2, SOUTH HERO, VT 05486",
        "googleMapsUrl": "http://maps.google.com/maps?q=SOUTH%20HERO%20PHARMACY%20LLC%2C330-334%20ROUTE%202%2C+SOUTH%20HERO%2C+VT+05486",
        "lat": 44.645306,
        "lng": -73.308105,
        "name": "SOUTH HERO PHARMACY LLC",
        "postal": 5486,
        "source": "DEA",
        "source_date": "Dec2018",
        "state": "VT"
    },
    {
        "address": "187 MAIN STREET, VERGENNES, VT 05491",
        "googleMapsUrl": "http://maps.google.com/maps?q=MARBLE%20WORKS%20PHARMACY%2C187%20MAIN%20STREET%2C+VERGENNES%2C+VT+05491",
        "lat": 44.16783,
        "lng": -73.25211999999999,
        "name": "MARBLE WORKS PHARMACY",
        "postal": 5491,
        "source": "DEA",
        "source_date": "Dec2018",
        "state": "VT"
    },
    {
        "address": "DBA RUTLAND PHARMACY, 75 ALLEN STREET, RUTLAND, VT 05701",
        "googleMapsUrl": "http://maps.google.com/maps?q=HIGH%20MOUNTAIN%20CORPORATION%2CDBA%20RUTLAND%20PHARMACY%2C+RUTLAND%2C+VT+05701",
        "lat": 43.597778600000005,
        "lng": -72.96303879999999,
        "name": "HIGH MOUNTAIN CORPORATION",
        "postal": 5701,
        "source": "DEA",
        "source_date": "Dec2018",
        "state": "VT"
    },
    {
        "address": "160 ALLEN ST ATTN PHARM DEPT, RUTLAND, VT 05701",
        "googleMapsUrl": "http://maps.google.com/maps?q=RUTLAND%20REGIONAL%20MEDICAL%20CTR%2C160%20ALLEN%20ST%20ATTN%20PHARM%20DEPT%2C+RUTLAND%2C+VT+05701",
        "lat": 43.59745,
        "lng": -72.96352399999999,
        "name": "RUTLAND REGIONAL MEDICAL CTR",
        "postal": 5701,
        "source": "DEA",
        "source_date": "Dec2018",
        "state": "VT"
    },
    {
        "address": "252 STRATTON ROAD, RUTLAND, VT 05701",
        "googleMapsUrl": "http://maps.google.com/maps?q=WILCOX%20PHARMACY%2C252%20STRATTON%20ROAD%2C+RUTLAND%2C+VT+05701",
        "lat": 43.616820000000004,
        "lng": -72.956795,
        "name": "WILCOX PHARMACY",
        "postal": 5701,
        "source": "DEA",
        "source_date": "Dec2018",
        "state": "VT"
    },
    {
        "address": "99 MAPLE ST, STE 19, MIDDLEBURY, VT 05753",
        "googleMapsUrl": "http://maps.google.com/maps?q=MARBLE%20WORKS%20PHARMACY%2C99%20MAPLE%20ST%2C+MIDDLEBURY%2C+VT+05753",
        "lat": 44.01532,
        "lng": -73.17022,
        "name": "MARBLE WORKS PHARMACY",
        "postal": 5753,
        "source": "DEA",
        "source_date": "Dec2018",
        "state": "VT"
    },
    {
        "address": "C/O DIRECTOR OF PHARMACY, 115 PORTER DRIVE, MIDDLEBURY, VT 05753",
        "googleMapsUrl": "http://maps.google.com/maps?q=PORTER%20HOSPITAL%2CC/O%20DIRECTOR%20OF%20PHARMACY%2C+MIDDLEBURY%2C+VT+05753",
        "lat": 44.0013934,
        "lng": -73.1557079,
        "name": "PORTER HOSPITAL",
        "postal": 5753,
        "source": "DEA",
        "source_date": "Dec2018",
        "state": "VT"
    },
    {
        "address": "415 RAILROAD ST, ST JOHNSBURY, VT 05819",
        "googleMapsUrl": "http://maps.google.com/maps?q=GAUTHIERS%20PHARMACY%20INC%2C415%20RAILROAD%20ST%2C+ST%20JOHNSBURY%2C+VT+05819",
        "lat": 44.418582,
        "lng": -72.01589200000001,
        "name": "GAUTHIER'S PHARMACY INC",
        "postal": 5819,
        "source": "DEA",
        "source_date": "Dec2018",
        "state": "VT"
    },
    {
        "address": "HOSPITAL DRIVE, ST JOHNSBURY, VT 05819",
        "googleMapsUrl": "http://maps.google.com/maps?q=NORTHEASTERN%20VT%20REG%20HOSP%20INC%2CHOSPITAL%20DRIVE%2C+ST%20JOHNSBURY%2C+VT+05819",
        "lat": 44.445372,
        "lng": -72.01550999999999,
        "name": "NORTHEASTERN VT REG HOSP INC",
        "postal": 5819,
        "source": "DEA",
        "source_date": "April2018",
        "state": "VT"
    },
    {
        "address": "189 PROUTY DRIVE, NEWPORT, VT 05855",
        "googleMapsUrl": "http://maps.google.com/maps?q=NORTH%20COUNTRY%20HOSPITAL%20AND%2C189%20PROUTY%20DRIVE%2C+NEWPORT%2C+VT+05855",
        "lat": 44.955698999999996,
        "lng": -72.200665,
        "name": "NORTH COUNTRY HOSPITAL AND",
        "postal": 5855,
        "source": "DEA",
        "source_date": "Dec2018",
        "state": "VT"
    },
    {
        "address": "PHARMACY, 21 GRAND STREET, HARTFORD, CT 06106",
        "googleMapsUrl": "http://maps.google.com/maps?q=CHARTER%20OAK%20HEALTH%20CENTER%2CPHARMACY%2C+HARTFORD%2C+CT+06106",
        "lat": 41.7577189,
        "lng": -72.6830985,
        "name": "CHARTER OAK HEALTH CENTER",
        "postal": 6106,
        "source": "DEA",
        "source_date": "Dec2018",
        "state": "CT"
    },
    {
        "address": "LONDON BLDG 449, 1 WAHOO DRIVE, GROTON, CT 06349",
        "googleMapsUrl": "http://maps.google.com/maps?q=USN%20NAVAL%20SUBMARINE%20BASE%20MEDICAL%2CLONDON%20BLDG%20449%2C+GROTON%2C+CT+06349",
        "lat": 41.399286,
        "lng": -72.086619,
        "name": "USN NAVAL SUBMARINE BASE MEDICAL",
        "postal": 6349,
        "source": "DEA",
        "source_date": "Dec2018",
        "state": "CT"
    },
    {
        "address": "560 PASSIAC AVE, WEST CALDWELL S/C, WEST CALDWELL, NJ 07006",
        "googleMapsUrl": "http://maps.google.com/maps?q=NEW%20JERSEY%20CVS%20PHARMACY%20LLC%2C560%20PASSIAC%20AVE%2C+WEST%20CALDWELL%2C+NJ+07006",
        "lat": 40.849139,
        "lng": -74.2987946,
        "name": "NEW JERSEY CVS PHARMACY, L.L.C.",
        "postal": 7006,
        "source": "DEA",
        "source_date": "April2018",
        "state": "NJ"
    },
    {
        "address": "353 CROOKS AVENUE, CLIFTON, NJ 07011",
        "googleMapsUrl": "http://maps.google.com/maps?q=CUREMED%20PHARMACY%2C353%20CROOKS%20AVENUE%2C+CLIFTON%2C+NJ+07011",
        "lat": 40.8909065,
        "lng": -74.1458812,
        "name": "CUREMED PHARMACY",
        "postal": 7011,
        "source": "DEA",
        "source_date": "Dec2018",
        "state": "NJ"
    },
    {
        "address": "508 DR MARTIN LUTHER KING JR, EAST ORANGE, NJ 07018",
        "googleMapsUrl": "http://maps.google.com/maps?q=WALGREEN%20EASTERN%20CO%20INC%2C508%20DR%20MARTIN%20LUTHER%20KING%20JR%2C+EAST%20ORANGE%2C+NJ+07018",
        "lat": 40.765696999999996,
        "lng": -74.21665,
        "name": "WALGREEN EASTERN CO., INC.",
        "postal": 7018,
        "source": "DEA",
        "source_date": "Dec2018",
        "state": "NJ"
    },
    {
        "address": "59 WASHINGTON ST, COURT STREET PLAZA, HOBOKEN, NJ 07030",
        "googleMapsUrl": "http://maps.google.com/maps?q=NEW%20JERSEY%20CVS%20PHARMACY%20LLC%2C59%20WASHINGTON%20ST%2C+HOBOKEN%2C+NJ+07030",
        "lat": 40.73676,
        "lng": -74.0311,
        "name": "NEW JERSEY CVS PHARMACY, L.L.C.",
        "postal": 7030,
        "source": "DEA",
        "source_date": "April2018",
        "state": "NJ"
    },
    {
        "address": "581 KEARNY AVE, KEARNY, NJ 07032",
        "googleMapsUrl": "http://maps.google.com/maps?q=MIDTOWN%20DRUGS%2C581%20KEARNY%20AVE%2C+KEARNY%2C+NJ+07032",
        "lat": 40.770744,
        "lng": -74.14516,
        "name": "MIDTOWN DRUGS",
        "postal": 7032,
        "source": "DEA",
        "source_date": "Dec2018",
        "state": "NJ"
    },
    {
        "address": "22 EAST ST GEORGES AVENUE, LINDEN, NJ 07036",
        "googleMapsUrl": "http://maps.google.com/maps?q=WALGREEN%20EASTERN%20CO%20INC%2C22%20EAST%20ST%20GEORGES%20AVENUE%2C+LINDEN%2C+NJ+07036",
        "lat": 40.6374968333,
        "lng": -74.2639915833,
        "name": "WALGREEN EASTERN CO., INC.",
        "postal": 7036,
        "source": "DEA",
        "source_date": "April2018",
        "state": "NJ"
    },
    {
        "address": "9015 BERGENLINE AVENUE - 90TH STREET, NORTH BERGEN, NJ 07047",
        "googleMapsUrl": "http://maps.google.com/maps?q=NEW%20JERSEY%20CVS%20PHARMACY%20LLC%2C9015%20BERGENLINE%20AVENUE%20-%2090TH%20STREET%2C+NORTH%20BERGEN%2C+NJ+07047",
        "lat": 40.808547999999995,
        "lng": -74.00191,
        "name": "NEW JERSEY CVS PHARMACY, L.L.C.",
        "postal": 7047,
        "source": "DEA",
        "source_date": "April2018",
        "state": "NJ"
    },
    {
        "address": "200 BALDWIN RD. SUITE 200, PARSIPPANY, NJ 07054",
        "googleMapsUrl": "http://maps.google.com/maps?q=WALGREEN%20EASTERN%20CO%20INC%2C200%20BALDWIN%20RD.%20SUITE%20200%2C+PARSIPPANY%2C+NJ+07054",
        "lat": 40.865192,
        "lng": -74.39451,
        "name": "WALGREEN EASTERN CO., INC.",
        "postal": 7054,
        "source": "DEA",
        "source_date": "Dec2018",
        "state": "NJ"
    },
    {
        "address": "890 SAINT GEORGE'S AVENUE, RAHWAY, NJ 07065",
        "googleMapsUrl": "http://maps.google.com/maps?q=NEW%20JERSEY%20CVS%20PHARMACY%20LLC%2C890%20SAINT%20GEORGE'S%20AVENUE%2C+RAHWAY%2C+NJ+07065",
        "lat": 40.6056137143,
        "lng": -74.2888898571,
        "name": "NEW JERSEY CVS PHARMACY, L.L.C.",
        "postal": 7065,
        "source": "DEA",
        "source_date": "April2018",
        "state": "NJ"
    },
    {
        "address": "637 HOBOKEN ROAD, CARLSTADT, NJ 07072",
        "googleMapsUrl": "http://maps.google.com/maps?q=WALGREEN%20EASTERN%20CO%20INC%2C637%20HOBOKEN%20ROAD%2C+CARLSTADT%2C+NJ+07072",
        "lat": 40.840675,
        "lng": -74.1013,
        "name": "WALGREEN EASTERN CO., INC.",
        "postal": 7072,
        "source": "DEA",
        "source_date": "Dec2018",
        "state": "NJ"
    },
    {
        "address": "1708 PARK AVENUE, SOUTH PLAINFIELD, NJ 07080",
        "googleMapsUrl": "http://maps.google.com/maps?q=TWIN%20CITY%20PHARMACY%2C1708%20PARK%20AVENUE%2C+SOUTH%20PLAINFIELD%2C+NJ+07080",
        "lat": 40.598022,
        "lng": -74.40134,
        "name": "TWIN CITY PHARMACY",
        "postal": 7080,
        "source": "DEA",
        "source_date": "Dec2018",
        "state": "NJ"
    },
    {
        "address": "2287 MORRIS AVENUE, UNION, NJ 07083",
        "googleMapsUrl": "http://maps.google.com/maps?q=NEW%20JERSEY%20CVS%20PHARMACY%20LLC%2C2287%20MORRIS%20AVENUE%2C+UNION%2C+NJ+07083",
        "lat": 40.6992080625,
        "lng": -74.28260745829999,
        "name": "NEW JERSEY CVS PHARMACY, L.L.C.",
        "postal": 7083,
        "source": "DEA",
        "source_date": "April2018",
        "state": "NJ"
    },
    {
        "address": "2148 MORRIS AVE, UNION, NJ 07083",
        "googleMapsUrl": "http://maps.google.com/maps?q=WALGREEN%20EASTERN%20CO%20INC%2C2148%20MORRIS%20AVE%2C+UNION%2C+NJ+07083",
        "lat": 40.69793,
        "lng": -74.27662,
        "name": "WALGREEN EASTERN CO., INC.",
        "postal": 7083,
        "source": "DEA",
        "source_date": "Dec2018",
        "state": "NJ"
    },
    {
        "address": "243 E BROAD STREET, WESTFIELD, NJ 07090",
        "googleMapsUrl": "http://maps.google.com/maps?q=BARONS%20FAMILY%20PHARMACY%20INC%2C243%20E%20BROAD%20STREET%2C+WESTFIELD%2C+NJ+07090",
        "lat": 40.65251,
        "lng": -74.34749599999999,
        "name": "BARON'S FAMILY PHARMACY INC",
        "postal": 7090,
        "source": "DEA",
        "source_date": "Dec2018",
        "state": "NJ"
    },
    {
        "address": "1115 SOUTH AVENUE W,, WESTFIELD, NJ 07090",
        "googleMapsUrl": "http://maps.google.com/maps?q=TIFFANY%20NATURAL%20PHARMACY%2C1115%20SOUTH%20AVENUE%20W%2C%2C+WESTFIELD%2C+NJ+07090",
        "lat": 40.646515,
        "lng": -74.36327,
        "name": "TIFFANY NATURAL PHARMACY",
        "postal": 7090,
        "source": "DEA",
        "source_date": "Dec2018",
        "state": "NJ"
    },
    {
        "address": "23 COURT STREET, NEWARK, NJ 07102",
        "googleMapsUrl": "http://maps.google.com/maps?q=CITIHEALTH%20RX%20INC%2C23%20COURT%20STREET%2C+NEWARK%2C+NJ+07102",
        "lat": 40.731,
        "lng": -74.17595,
        "name": "CITIHEALTH RX INC",
        "postal": 7102,
        "source": "DEA",
        "source_date": "Dec2018",
        "state": "NJ"
    },
    {
        "address": "338 WASHINGTON AVE, BELLEVILLE, NJ 07109",
        "googleMapsUrl": "http://maps.google.com/maps?q=BELLEVILLE%20PHARMACY%2C338%20WASHINGTON%20AVE%2C+BELLEVILLE%2C+NJ+07109",
        "lat": 40.791176,
        "lng": -74.15124499999999,
        "name": "BELLEVILLE PHARMACY",
        "postal": 7109,
        "source": "DEA",
        "source_date": "Dec2018",
        "state": "NJ"
    },
    {
        "address": "107 EAST FIRST AVENUE, ROSELLE, NJ 07203",
        "googleMapsUrl": "http://maps.google.com/maps?q=NEW%20JERSEY%20CVS%20PHARMACY%20LLC%2C107%20EAST%20FIRST%20AVENUE%2C+ROSELLE%2C+NJ+07203",
        "lat": 40.660156,
        "lng": -74.263176,
        "name": "NEW JERSEY CVS PHARMACY, L.L.C.",
        "postal": 7203,
        "source": "DEA",
        "source_date": "April2018",
        "state": "NJ"
    },
    {
        "address": "600 NEWARK AVE, ELIZABETH, NJ 07208",
        "googleMapsUrl": "http://maps.google.com/maps?q=WALGREEN%20EASTERN%20CO%20INC%2C600%20NEWARK%20AVE%2C+ELIZABETH%2C+NJ+07208",
        "lat": 40.67678,
        "lng": -74.21194,
        "name": "WALGREEN EASTERN CO., INC.",
        "postal": 7208,
        "source": "DEA",
        "source_date": "Dec2018",
        "state": "NJ"
    },
    {
        "address": "110 NEWARK AVENUE, JERSEY CITY, NJ 07302",
        "googleMapsUrl": "http://maps.google.com/maps?q=DUANE%20READE%20PHCY%20DEPT%2C110%20NEWARK%20AVENUE%2C+JERSEY%20CITY%2C+NJ+07302",
        "lat": 40.719868,
        "lng": -74.042694,
        "name": "DUANE READE PHCY. DEPT.",
        "postal": 7302,
        "source": "DEA",
        "source_date": "Dec2018",
        "state": "NJ"
    },
    {
        "address": "2395 KENNEDY BLVD., JERSEY CITY, NJ 07304",
        "googleMapsUrl": "http://maps.google.com/maps?q=WALGREEN%20EASTERN%20CO%20INC%2C2395%20KENNEDY%20BLVD.%2C+JERSEY%20CITY%2C+NJ+07304",
        "lat": 40.7199743,
        "lng": -74.08068409999998,
        "name": "WALGREEN EASTERN CO., INC.",
        "postal": 7304,
        "source": "DEA",
        "source_date": "April2018",
        "state": "NJ"
    },
    {
        "address": "1561 JOHN F KENNEDY BLVD, JERSEY CITY, NJ 07305",
        "googleMapsUrl": "http://maps.google.com/maps?q=WALGREEN%20EASTERN%20CO%20INC%2C1561%20JOHN%20F%20KENNEDY%20BLVD%2C+JERSEY%20CITY%2C+NJ+07305",
        "lat": 40.69585120000001,
        "lng": -74.09902695,
        "name": "WALGREEN EASTERN CO., INC.",
        "postal": 7305,
        "source": "DEA",
        "source_date": "April2018",
        "state": "NJ"
    },
    {
        "address": "100 BROADWAY, ELMWOOD PARK, NJ 07407",
        "googleMapsUrl": "http://maps.google.com/maps?q=WALGREEN%20EASTERN%20CO%20INC%2C100%20BROADWAY%2C+ELMWOOD%20PARK%2C+NJ+07407",
        "lat": 40.919075,
        "lng": -74.12550999999999,
        "name": "WALGREEN EASTERN CO., INC.",
        "postal": 7407,
        "source": "DEA",
        "source_date": "Dec2018",
        "state": "NJ"
    },
    {
        "address": "24-12 FAIR LAWN AVENUE, FAIR LAWN, NJ 07410",
        "googleMapsUrl": "http://maps.google.com/maps?q=NEW%20JERSEY%20CVS%20PHARMACY%20LLC%2C24-12%20FAIR%20LAWN%20AVENUE%2C+FAIR%20LAWN%2C+NJ+07410",
        "lat": 40.937785999999996,
        "lng": -74.1258008,
        "name": "NEW JERSEY CVS PHARMACY, L.L.C.",
        "postal": 7410,
        "source": "DEA",
        "source_date": "April2018",
        "state": "NJ"
    },
    {
        "address": "72 CRESCENT AVE, WALDWICK, NJ 07463",
        "googleMapsUrl": "http://maps.google.com/maps?q=WALGREEN%20EASTERN%20CO%20INC%2C72%20CRESCENT%20AVE%2C+WALDWICK%2C+NJ+07463",
        "lat": 41.012474,
        "lng": -74.139404,
        "name": "WALGREEN EASTERN CO., INC.",
        "postal": 7463,
        "source": "DEA",
        "source_date": "Dec2018",
        "state": "NJ"
    },
    {
        "address": "2440 HAMBURG TURNPIKE, WAYNE, NJ 07470",
        "googleMapsUrl": "http://maps.google.com/maps?q=NEW%20JERSEY%20CVS%20PHARMACY%20LLC%2C2440%20HAMBURG%20TURNPIKE%2C+WAYNE%2C+NJ+07470",
        "lat": 40.959365999999996,
        "lng": -74.233737,
        "name": "NEW JERSEY CVS PHARMACY, L.L.C.",
        "postal": 7470,
        "source": "DEA",
        "source_date": "April2018",
        "state": "NJ"
    },
    {
        "address": "678 WYCKOFF AVE, WYCKOFF, NJ 07481",
        "googleMapsUrl": "http://maps.google.com/maps?q=MILLERS%20OF%20WYCKOFF%20INC%2C678%20WYCKOFF%20AVE%2C+WYCKOFF%2C+NJ+07481",
        "lat": 41.013268,
        "lng": -74.172005,
        "name": "MILLERS OF WYCKOFF INC",
        "postal": 7481,
        "source": "DEA",
        "source_date": "Dec2018",
        "state": "NJ"
    },
    {
        "address": "303 FRANKLIN AVENUE, WYCKOFF, NJ 07481",
        "googleMapsUrl": "http://maps.google.com/maps?q=NEW%20JERSEY%20CVS%20PHARMACY%20LLC%2C303%20FRANKLIN%20AVENUE%2C+WYCKOFF%2C+NJ+07481",
        "lat": 41.01090725,
        "lng": -74.16662425,
        "name": "NEW JERSEY CVS PHARMACY, L.L.C.",
        "postal": 7481,
        "source": "DEA",
        "source_date": "April2018",
        "state": "NJ"
    },
    {
        "address": "639 E 18TH ST, PATERSON, NJ 07501",
        "googleMapsUrl": "http://maps.google.com/maps?q=WALGREEN%20EASTERN%20CO%20INC%2C639%20E%2018TH%20ST%2C+PATERSON%2C+NJ+07501",
        "lat": 40.918016566999995,
        "lng": -74.1556508275,
        "name": "WALGREEN EASTERN CO., INC.",
        "postal": 7501,
        "source": "DEA",
        "source_date": "April2018",
        "state": "NJ"
    },
    {
        "address": "225 W. RTE 46, SUITE 4, TOTOWA, NJ 07512",
        "googleMapsUrl": "http://maps.google.com/maps?q=COMMUNITY%20CARE%20RX%20NJ%2C225%20W.%20RTE%2046%2C+TOTOWA%2C+NJ+07512",
        "lat": 40.894764,
        "lng": -74.23566,
        "name": "COMMUNITY CARE RX NJ",
        "postal": 7512,
        "source": "DEA",
        "source_date": "Dec2018",
        "state": "NJ"
    },
    {
        "address": "25 E SALEM STREET, HACKENSACK, NJ 07601",
        "googleMapsUrl": "http://maps.google.com/maps?q=GENOA%20HEALTHCARE%20LLC%2C25%20E%20SALEM%20STREET%2C+HACKENSACK%2C+NJ+07601",
        "lat": 40.8851756,
        "lng": -74.0407691,
        "name": "GENOA HEALTHCARE, LLC",
        "postal": 7601,
        "source": "DEA",
        "source_date": "Dec2018",
        "state": "NJ"
    },
    {
        "address": "2 BAYSHORE PLAZA, HWY 36, ATLANTIC HIGHLANDS, NJ 07716",
        "googleMapsUrl": "http://maps.google.com/maps?q=BAYSHORE%20PHARMACY%2C2%20BAYSHORE%20PLAZA%2C+ATLANTIC%20HIGHLANDS%2C+NJ+07716",
        "lat": 40.4091349,
        "lng": -74.0418662,
        "name": "BAYSHORE PHARMACY",
        "postal": 7716,
        "source": "DEA",
        "source_date": "Dec2018",
        "state": "NJ"
    },
    {
        "address": "877 MAIN ST, BELFORD, NJ 07718",
        "googleMapsUrl": "http://maps.google.com/maps?q=MIDDLETOWN%20FAMILY%20PHARMACY%2C877%20MAIN%20ST%2C+BELFORD%2C+NJ+07718",
        "lat": 40.415817,
        "lng": -74.09402299999999,
        "name": "MIDDLETOWN FAMILY PHARMACY",
        "postal": 7718,
        "source": "DEA",
        "source_date": "April2018",
        "state": "NJ"
    },
    {
        "address": "138 VILLAGE CENTER DR, RAINTREE S/C, FREEHOLD, NJ 07728",
        "googleMapsUrl": "http://maps.google.com/maps?q=NEW%20JERSEY%20CVS%20PHARMACY%20LLC%2C138%20VILLAGE%20CENTER%20DR%2C+FREEHOLD%2C+NJ+07728",
        "lat": 40.24009,
        "lng": -74.30778000000001,
        "name": "NEW JERSEY CVS PHARMACY, L.L.C.",
        "postal": 7728,
        "source": "DEA",
        "source_date": "April2018",
        "state": "NJ"
    },
    {
        "address": "425 W MAIN ST, FREEHOLD, NJ 07728",
        "googleMapsUrl": "http://maps.google.com/maps?q=WALGREEN%20EASTERN%20CO%20INC%2C425%20W%20MAIN%20ST%2C+FREEHOLD%2C+NJ+07728",
        "lat": 40.24,
        "lng": -74.30523000000001,
        "name": "WALGREEN EASTERN CO., INC.",
        "postal": 7728,
        "source": "DEA",
        "source_date": "April2018",
        "state": "NJ"
    },
    {
        "address": "1905 CORLIES AVE, NEPTUNE, NJ 07753",
        "googleMapsUrl": "http://maps.google.com/maps?q=WALGREEN%20EASTERN%20CO%20INC%2C1905%20CORLIES%20AVE%2C+NEPTUNE%2C+NJ+07753",
        "lat": 40.2080558,
        "lng": -74.0366599,
        "name": "WALGREEN EASTERN CO., INC.",
        "postal": 7753,
        "source": "DEA",
        "source_date": "Dec2018",
        "state": "NJ"
    },
    {
        "address": "216 STATE ROUTE 36, WEST LONG BRANCH, NJ 07764",
        "googleMapsUrl": "http://maps.google.com/maps?q=WALGREEN%20EASTERN%20CO%20INC%2C216%20STATE%20ROUTE%2036%2C+WEST%20LONG%20BRANCH%2C+NJ+07764",
        "lat": 40.295221999999995,
        "lng": -74.0300757,
        "name": "WALGREEN EASTERN CO., INC.",
        "postal": 7764,
        "source": "DEA",
        "source_date": "April2018",
        "state": "NJ"
    },
    {
        "address": "66 MAIN ST, MADISON, NJ 07940",
        "googleMapsUrl": "http://maps.google.com/maps?q=MADISON%20PHARMACY%2C66%20MAIN%20ST%2C+MADISON%2C+NJ+07940",
        "lat": 40.75894,
        "lng": -74.4153,
        "name": "MADISON PHARMACY",
        "postal": 7940,
        "source": "DEA",
        "source_date": "Dec2018",
        "state": "NJ"
    },
    {
        "address": "100 SPRINGDALE RD, CHERRY HILL, NJ 08003",
        "googleMapsUrl": "http://maps.google.com/maps?q=NEW%20JERSEY%20CVS%20PHARMACY%20LLC%2C100%20SPRINGDALE%20RD%2C+CHERRY%20HILL%2C+NJ+08003",
        "lat": 39.862045,
        "lng": -74.97452,
        "name": "NEW JERSEY CVS PHARMACY, L.L.C.",
        "postal": 8003,
        "source": "DEA",
        "source_date": "April2018",
        "state": "NJ"
    },
    {
        "address": "1865 ROUTE 70 EAST, CHERRY HILL, NJ 08003",
        "googleMapsUrl": "http://maps.google.com/maps?q=PENN%20MEDICINE%20CHERRY%20HILL%20PHARMACY%20DEPARTMENT%2C1865%20ROUTE%2070%20EAST%2C+CHERRY%20HILL%2C+NJ+08003",
        "lat": 39.9036129,
        "lng": -74.9742809,
        "name": "PENN MEDICINE CHERRY HILL PHARMACY DEPARTMENT",
        "postal": 8003,
        "source": "DEA",
        "source_date": "April2018",
        "state": "NJ"
    },
    {
        "address": "600 KINGS HWY N, CHERRY HILL, NJ 08034",
        "googleMapsUrl": "http://maps.google.com/maps?q=NEW%20JERSEY%20CVS%20PHARMACY%20LLC%2C600%20KINGS%20HWY%20N%2C+CHERRY%20HILL%2C+NJ+08034",
        "lat": 39.919375200000005,
        "lng": -75.0129436,
        "name": "NEW JERSEY CVS PHARMACY, L.L.C.",
        "postal": 8034,
        "source": "DEA",
        "source_date": "April2018",
        "state": "NJ"
    },
    {
        "address": "3110 ROUTE 38, MOUNT LAUREL, NJ 08054",
        "googleMapsUrl": "http://maps.google.com/maps?q=NEW%20JERSEY%20CVS%20PHARMACY%20LLC%2C3110%20ROUTE%2038%2C+MOUNT%20LAUREL%2C+NJ+08054",
        "lat": 39.9701777,
        "lng": -74.8755333,
        "name": "NEW JERSEY CVS PHARMACY, L.L.C.",
        "postal": 8054,
        "source": "DEA",
        "source_date": "April2018",
        "state": "NJ"
    },
    {
        "address": "40 TWOSOME DRIVE UNIT 1, MOORESTOWN, NJ 08057",
        "googleMapsUrl": "http://maps.google.com/maps?q=OMNICARE%20OF%20SOUTHERN%20NEW%20JERSEY%2C40%20TWOSOME%20DRIVE%20UNIT%201%2C+MOORESTOWN%2C+NJ+08057",
        "lat": 39.978016,
        "lng": -74.97649,
        "name": "OMNICARE OF SOUTHERN NEW JERSEY",
        "postal": 8057,
        "source": "DEA",
        "source_date": "Dec2018",
        "state": "NJ"
    },
    {
        "address": "24 S. BLACK HORSE PIKE, MOUNT EPHRAIM, NJ 08059",
        "googleMapsUrl": "http://maps.google.com/maps?q=NEW%20JERSEY%20CVS%20PHARMACY%20LLC%2C24%20S.%20BLACK%20HORSE%20PIKE%2C+MOUNT%20EPHRAIM%2C+NJ+08059",
        "lat": 39.8805684,
        "lng": -75.0869195,
        "name": "NEW JERSEY CVS PHARMACY, L.L.C.",
        "postal": 8059,
        "source": "DEA",
        "source_date": "April2018",
        "state": "NJ"
    },
    {
        "address": "307 EGG HARBOR RD, SEWELL, NJ 08080",
        "googleMapsUrl": "http://maps.google.com/maps?q=NEW%20JERSEY%20CVS%20PHARMACY%20LLC%2C307%20EGG%20HARBOR%20RD%2C+SEWELL%2C+NJ+08080",
        "lat": 39.76399,
        "lng": -75.08548,
        "name": "NEW JERSEY CVS PHARMACY, L.L.C.",
        "postal": 8080,
        "source": "DEA",
        "source_date": "April2018",
        "state": "NJ"
    },
    {
        "address": "25 EAST RED BANK AVENUE, WOODBURY, NJ 08096",
        "googleMapsUrl": "http://maps.google.com/maps?q=NEW%20JERSEY%20CVS%20PHARMACY%20LLC%2C25%20EAST%20RED%20BANK%20AVENUE%2C+WOODBURY%2C+NJ+08096",
        "lat": 39.8430336305,
        "lng": -75.1489143245,
        "name": "NEW JERSEY CVS PHARMACY, L.L.C.",
        "postal": 8096,
        "source": "DEA",
        "source_date": "April2018",
        "state": "NJ"
    },
    {
        "address": "4601 WESTFIELD AVENUE, PENNSAUKEN, NJ 08110",
        "googleMapsUrl": "http://maps.google.com/maps?q=WALGREEN%20EASTERN%20CO%20INC%2C4601%20WESTFIELD%20AVENUE%2C+PENNSAUKEN%2C+NJ+08110",
        "lat": 39.956932,
        "lng": -75.06808000000001,
        "name": "WALGREEN EASTERN CO., INC.",
        "postal": 8110,
        "source": "DEA",
        "source_date": "Dec2018",
        "state": "NJ"
    },
    {
        "address": "236 E JIMMIE LEEDS ROAD, SUITE C, GALLOWAY, NJ 08205",
        "googleMapsUrl": "http://maps.google.com/maps?q=CUREXA%2C236%20E%20JIMMIE%20LEEDS%20ROAD%2C+GALLOWAY%2C+NJ+08205",
        "lat": 39.4688156,
        "lng": -74.5038888,
        "name": "CUREXA",
        "postal": 8205,
        "source": "DEA",
        "source_date": "Dec2018",
        "state": "NJ"
    },
    {
        "address": "6815 TILTON ROAD, EGG HARBOR TWP, NJ 08234",
        "googleMapsUrl": "http://maps.google.com/maps?q=NEW%20JERSEY%20CVS%20PHARMACY%20LLC%2C6815%20TILTON%20ROAD%2C+EGG%20HARBOR%20TWP%2C+NJ+08234",
        "lat": 39.432325,
        "lng": -74.5795,
        "name": "NEW JERSEY CVS PHARMACY, L.L.C.",
        "postal": 8234,
        "source": "DEA",
        "source_date": "April2018",
        "state": "NJ"
    },
    {
        "address": "2247 OCEAN HEIGHTS AVE., EGG HARBOR TOWNSHIP, NJ 08234",
        "googleMapsUrl": "http://maps.google.com/maps?q=WALGREEN%20EASTERN%20CO%20INC%2C2247%20OCEAN%20HEIGHTS%20AVE.%2C+EGG%20HARBOR%20TOWNSHIP%2C+NJ+08234",
        "lat": 39.3643360583,
        "lng": -74.619611228,
        "name": "WALGREEN EASTERN CO., INC.",
        "postal": 8234,
        "source": "DEA",
        "source_date": "April2018",
        "state": "NJ"
    },
    {
        "address": "1111 NORTH HIGH STREET, MILLVILLE, NJ 08332",
        "googleMapsUrl": "http://maps.google.com/maps?q=WALGREEN%20EASTERN%20CO%20INC%2C1111%20NORTH%20HIGH%20STREET%2C+MILLVILLE%2C+NJ+08332",
        "lat": 39.408802,
        "lng": -75.03956,
        "name": "WALGREEN EASTERN CO., INC.",
        "postal": 8332,
        "source": "DEA",
        "source_date": "Dec2018",
        "state": "NJ"
    },
    {
        "address": "3458 NEELY ROAD, MC GUIRE AFB, NJ 08641",
        "googleMapsUrl": "http://maps.google.com/maps?q=USAF%20TH%20MED%20LOGISTICSSGSM%2C3458%20NEELY%20ROAD%2C+MC%20GUIRE%20AFB%2C+NJ+08641",
        "lat": 40.031982,
        "lng": -74.612387,
        "name": "USAF- 87TH MED LOGISTICS/SGSM",
        "postal": 8641,
        "source": "DEA",
        "source_date": "Dec2018",
        "state": "NJ"
    },
    {
        "address": "1099 RTE. 33 HAMILTON SQUARE, HAMILTON, NJ 08690",
        "googleMapsUrl": "http://maps.google.com/maps?q=NEW%20JERSEY%20CVS%20PHARMACY%20LLC%2C1099%20RTE.%2033%20HAMILTON%20SQUARE%2C+HAMILTON%2C+NJ+08690",
        "lat": 40.22847,
        "lng": -74.66676,
        "name": "NEW JERSEY CVS PHARMACY, L.L.C.",
        "postal": 8690,
        "source": "DEA",
        "source_date": "April2018",
        "state": "NJ"
    },
    {
        "address": "1096 ROUTE 33, HAMILTON, NJ 08690",
        "googleMapsUrl": "http://maps.google.com/maps?q=WALGREEN%20EASTERN%20CO%20INC%2C1096%20ROUTE%2033%2C+HAMILTON%2C+NJ+08690",
        "lat": 40.228291999999996,
        "lng": -74.6674065,
        "name": "WALGREEN EASTERN CO., INC.",
        "postal": 8690,
        "source": "DEA",
        "source_date": "Dec2018",
        "state": "NJ"
    },
    {
        "address": "2479 CHURCH ROAD, TOMS RIVER, NJ 08753",
        "googleMapsUrl": "http://maps.google.com/maps?q=WALGREEN%20EASTERN%20CO%20INC%2C2479%20CHURCH%20ROAD%2C+TOMS%20RIVER%2C+NJ+08753",
        "lat": 40.0161,
        "lng": -74.14714000000001,
        "name": "WALGREEN EASTERN CO., INC.",
        "postal": 8753,
        "source": "DEA",
        "source_date": "April2018",
        "state": "NJ"
    },
    {
        "address": "51 BANANIER DR., TOMS RIVER, NJ 08755",
        "googleMapsUrl": "http://maps.google.com/maps?q=NEW%20JERSEY%20CVS%20PHARMACY%20LLC%2C51%20BANANIER%20DR.%2C+TOMS%20RIVER%2C+NJ+08755",
        "lat": 39.975357,
        "lng": -74.24790899999999,
        "name": "NEW JERSEY CVS PHARMACY, L.L.C.",
        "postal": 8755,
        "source": "DEA",
        "source_date": "April2018",
        "state": "NJ"
    },
    {
        "address": "1311 ROUTE 37 W, TOMS RIVER, NJ 08755",
        "googleMapsUrl": "http://maps.google.com/maps?q=WALGREEN%20EASTERN%20CO%20INC%2C1311%20ROUTE%2037%20W%2C+TOMS%20RIVER%2C+NJ+08755",
        "lat": 39.983612,
        "lng": -74.255732,
        "name": "WALGREEN EASTERN CO., INC.",
        "postal": 8755,
        "source": "DEA",
        "source_date": "Dec2018",
        "state": "NJ"
    },
    {
        "address": "2353 LAKEWOOD RD, TOMS RIVER, NJ 08755",
        "googleMapsUrl": "http://maps.google.com/maps?q=WALGREEN%20EASTERN%20CO%20INC%2C2353%20LAKEWOOD%20RD%2C+TOMS%20RIVER%2C+NJ+08755",
        "lat": 39.974694,
        "lng": -74.20648800000001,
        "name": "WALGREEN EASTERN CO., INC.",
        "postal": 8755,
        "source": "DEA",
        "source_date": "April2018",
        "state": "NJ"
    },
    {
        "address": "421 RYDERS LANE, EAST BRUNSWICK, NJ 08816",
        "googleMapsUrl": "http://maps.google.com/maps?q=WALGREEN%20EASTERN%20CO%20INC%2C421%20RYDERS%20LANE%2C+EAST%20BRUNSWICK%2C+NJ+08816",
        "lat": 40.436370000000004,
        "lng": -74.422714,
        "name": "WALGREEN EASTERN CO., INC.",
        "postal": 8816,
        "source": "DEA",
        "source_date": "Dec2018",
        "state": "NJ"
    },
    {
        "address": "1949 OAK TREE ROAD, EDISON, NJ 08820",
        "googleMapsUrl": "http://maps.google.com/maps?q=DEVINES%20PHARMACY%20INC%2C1949%20OAK%20TREE%20ROAD%2C+EDISON%2C+NJ+08820",
        "lat": 40.574020000000004,
        "lng": -74.36478000000001,
        "name": "DEVINES PHARMACY INC",
        "postal": 8820,
        "source": "DEA",
        "source_date": "Dec2018",
        "state": "NJ"
    },
    {
        "address": "520 CONVERY BLVD., PERTH AMBOY, NJ 08861",
        "googleMapsUrl": "http://maps.google.com/maps?q=WALGREEN%20EASTERN%20CO%20INC%2C520%20CONVERY%20BLVD.%2C+PERTH%20AMBOY%2C+NJ+08861",
        "lat": 40.5204,
        "lng": -74.28238,
        "name": "WALGREEN EASTERN CO., INC.",
        "postal": 8861,
        "source": "DEA",
        "source_date": "Dec2018",
        "state": "NJ"
    },
    {
        "address": "129 SOMERSET ST, SOMERVILLE, NJ 08876",
        "googleMapsUrl": "http://maps.google.com/maps?q=WALGREEN%20EASTERN%20CO%20INC%2C129%20SOMERSET%20ST%2C+SOMERVILLE%2C+NJ+08876",
        "lat": 40.569687,
        "lng": -74.624626,
        "name": "WALGREEN EASTERN CO., INC.",
        "postal": 8876,
        "source": "DEA",
        "source_date": "Dec2018",
        "state": "NJ"
    },
    {
        "address": "2000 RT 27 NORTH, NORTH BRUNSWICK, NJ 08902",
        "googleMapsUrl": "http://maps.google.com/maps?q=MEDLIFE%20PHARMACY%2C2000%20RT%20%20%2027%20NORTH%2C+NORTH%20BRUNSWICK%2C+NJ+08902",
        "lat": 40.4594249,
        "lng": -74.508487,
        "name": "MEDLIFE PHARMACY",
        "postal": 8902,
        "source": "DEA",
        "source_date": "Dec2018",
        "state": "NJ"
    },
    {
        "address": "253 FIRST AVENUE, NEW YORK, NY 10003",
        "googleMapsUrl": "http://maps.google.com/maps?q=CVS%20ALBANY%20LLC%2C253%20FIRST%20AVENUE%2C+NEW%20YORK%2C+NY+10003",
        "lat": 40.731952899999996,
        "lng": -73.98473249999999,
        "name": "CVS ALBANY, L.L.C.",
        "postal": 10003,
        "source": "DEA",
        "source_date": "April2018",
        "state": "NY"
    },
    {
        "address": "1 UNION SQ SOUTH, NEW YORK, NY 10003",
        "googleMapsUrl": "http://maps.google.com/maps?q=DUANE%20READE%2C1%20UNION%20SQ%20SOUTH%2C+NEW%20YORK%2C+NY+10003",
        "lat": 40.735817,
        "lng": -73.991135,
        "name": "DUANE READE",
        "postal": 10003,
        "source": "DEA",
        "source_date": "Dec2018",
        "state": "NY"
    },
    {
        "address": "40 WALL STREET, NEW YORK, NY 10005",
        "googleMapsUrl": "http://maps.google.com/maps?q=DUANE%20READE%2C40%20WALL%20STREET%2C+NEW%20YORK%2C+NY+10005",
        "lat": 40.706593,
        "lng": -74.00981,
        "name": "DUANE READE",
        "postal": 10005,
        "source": "DEA",
        "source_date": "Dec2018",
        "state": "NY"
    },
    {
        "address": "298 FIRST AVE, NEW YORK, NY 10009",
        "googleMapsUrl": "http://maps.google.com/maps?q=WALGREEN%20EASTERN%20CO%20INC%2C298%20FIRST%20AVE%2C+NEW%20YORK%2C+NY+10009",
        "lat": 40.733105,
        "lng": -73.98121,
        "name": "WALGREEN EASTERN CO., INC.",
        "postal": 10009,
        "source": "DEA",
        "source_date": "Dec2018",
        "state": "NY"
    },
    {
        "address": "71 WEST 23RD STREET, NEW YORK, NY 10010",
        "googleMapsUrl": "http://maps.google.com/maps?q=DUANE%20READE%2C71%20WEST%2023RD%20STREET%2C+NEW%20YORK%2C+NY+10010",
        "lat": 40.742496,
        "lng": -73.9918,
        "name": "DUANE READE",
        "postal": 10010,
        "source": "DEA",
        "source_date": "Dec2018",
        "state": "NY"
    },
    {
        "address": "385 A/B SECOND AVE, NEW YORK, NY 10010",
        "googleMapsUrl": "http://maps.google.com/maps?q=PROHEALTH%20PHARMACY%20INC%2C385%20A/B%20%20SECOND%20AVE%2C+NEW%20YORK%2C+NY+10010",
        "lat": 40.73753,
        "lng": -73.9835777,
        "name": "PROHEALTH PHARMACY INC",
        "postal": 10010,
        "source": "DEA",
        "source_date": "April2018",
        "state": "NY"
    },
    {
        "address": "155 EAST 34TH STREET, NEW YORK, NY 10016",
        "googleMapsUrl": "http://maps.google.com/maps?q=DUANE%20READE%2C155%20EAST%2034TH%20STREET%2C+NEW%20YORK%2C+NY+10016",
        "lat": 40.746193,
        "lng": -73.97919,
        "name": "DUANE READE",
        "postal": 10016,
        "source": "DEA",
        "source_date": "Dec2018",
        "state": "NY"
    },
    {
        "address": "150 EAST 42ND ST., NEW YORK, NY 10017",
        "googleMapsUrl": "http://maps.google.com/maps?q=CVS%20ALBANY%20LLC%2C150%20EAST%2042ND%20ST.%2C+NEW%20YORK%2C+NY+10017",
        "lat": 40.7510405,
        "lng": -73.97552209999999,
        "name": "CVS ALBANY, L.L.C.",
        "postal": 10017,
        "source": "DEA",
        "source_date": "April2018",
        "state": "NY"
    },
    {
        "address": "241 WEST 57TH STREET, NEW YORK, NY 10019",
        "googleMapsUrl": "http://maps.google.com/maps?q=CVS%20ALBANY%20LLC%2C241%20WEST%2057TH%20STREET%2C+NEW%20YORK%2C+NY+10019",
        "lat": 40.766438,
        "lng": -73.98198599999999,
        "name": "CVS ALBANY, L.L.C.",
        "postal": 10019,
        "source": "DEA",
        "source_date": "April2018",
        "state": "NY"
    },
    {
        "address": "51 WEST 51ST STREET, NEW YORK, NY 10019",
        "googleMapsUrl": "http://maps.google.com/maps?q=DUANE%20READE%2C51%20WEST%2051ST%20STREET%2C+NEW%20YORK%2C+NY+10019",
        "lat": 40.760914,
        "lng": -73.98085999999999,
        "name": "DUANE READE",
        "postal": 10019,
        "source": "DEA",
        "source_date": "Dec2018",
        "state": "NY"
    },
    {
        "address": "1396 SECOND AVENUE, NEW YORK, NY 10021",
        "googleMapsUrl": "http://maps.google.com/maps?q=CVS%20ALBANY%20LLC%2C1396%20SECOND%20AVENUE%2C+NEW%20YORK%2C+NY+10021",
        "lat": 40.7689905,
        "lng": -73.9600525,
        "name": "CVS ALBANY, L.L.C.",
        "postal": 10021,
        "source": "DEA",
        "source_date": "April2018",
        "state": "NY"
    },
    {
        "address": "630 LEXINGTON AVENUE, NEW YORK, NY 10022",
        "googleMapsUrl": "http://maps.google.com/maps?q=CVS%20ALBANY%20LLC%2C630%20LEXINGTON%20AVENUE%2C+NEW%20YORK%2C+NY+10022",
        "lat": 40.7587625,
        "lng": -73.97093290000001,
        "name": "CVS ALBANY, L.L.C.",
        "postal": 10022,
        "source": "DEA",
        "source_date": "April2018",
        "state": "NY"
    },
    {
        "address": "949 THIRD AVENUE, NEW YORK, NY 10022",
        "googleMapsUrl": "http://maps.google.com/maps?q=DUANE%20READE%2C949%20THIRD%20AVENUE%2C+NEW%20YORK%2C+NY+10022",
        "lat": 40.76014,
        "lng": -73.9676,
        "name": "DUANE READE",
        "postal": 10022,
        "source": "DEA",
        "source_date": "Dec2018",
        "state": "NY"
    },
    {
        "address": "540 AMSTERDAM AVENUE, NEW YORK, NY 10024",
        "googleMapsUrl": "http://maps.google.com/maps?q=CVS%20ALBANY%20LLC%2C540%20AMSTERDAM%20AVENUE%2C+NEW%20YORK%2C+NY+10024",
        "lat": 40.7881307,
        "lng": -73.97495450000001,
        "name": "CVS ALBANY, L.L.C.",
        "postal": 10024,
        "source": "DEA",
        "source_date": "April2018",
        "state": "NY"
    },
    {
        "address": "2522 BROADWAY, NEW YORK, NY 10025",
        "googleMapsUrl": "http://maps.google.com/maps?q=DUANE%20READE%2C2522%20BROADWAY%2C+NEW%20YORK%2C+NY+10025",
        "lat": 40.793434000000005,
        "lng": -73.97266,
        "name": "DUANE READE",
        "postal": 10025,
        "source": "DEA",
        "source_date": "Dec2018",
        "state": "NY"
    },
    {
        "address": "775 COLUMBUS AVENUE, NEW YORK, NY 10025",
        "googleMapsUrl": "http://maps.google.com/maps?q=DUANE%20READE%2C775%20COLUMBUS%20AVENUE%2C+NEW%20YORK%2C+NY+10025",
        "lat": 40.794059999999995,
        "lng": -73.96663000000001,
        "name": "DUANE READE",
        "postal": 10025,
        "source": "DEA",
        "source_date": "Dec2018",
        "state": "NY"
    },
    {
        "address": "1994 THIRD AVE, NEW YORK, NY 10029",
        "googleMapsUrl": "http://maps.google.com/maps?q=ISLA%20DRUG%20STORES%20INC%2C1994%20THIRD%20AVE%2C+NEW%20YORK%2C+NY+10029",
        "lat": 40.79395170000001,
        "lng": -73.9454497,
        "name": "ISLA DRUG STORES INC",
        "postal": 10029,
        "source": "DEA",
        "source_date": "April2018",
        "state": "NY"
    },
    {
        "address": "4180 BROADWAY, NEW YORK, NY 10033",
        "googleMapsUrl": "http://maps.google.com/maps?q=AMI%20PHARMACY%2C4180%20BROADWAY%2C+NEW%20YORK%2C+NY+10033",
        "lat": 40.847905,
        "lng": -73.93768309999999,
        "name": "AMI PHARMACY",
        "postal": 10033,
        "source": "DEA",
        "source_date": "April2018",
        "state": "NY"
    },
    {
        "address": "661 8TH AVENUE, NEW YORK, NY 10036",
        "googleMapsUrl": "http://maps.google.com/maps?q=DUANE%20READE%2C661%208TH%20AVENUE%2C+NEW%20YORK%2C+NY+10036",
        "lat": 40.757275,
        "lng": -73.989784,
        "name": "DUANE READE",
        "postal": 10036,
        "source": "DEA",
        "source_date": "Dec2018",
        "state": "NY"
    },
    {
        "address": "687 9TH AVE, NEW YORK, NY 10036",
        "googleMapsUrl": "http://maps.google.com/maps?q=ESCO%20DRUG%20CO%20INC%2C687%209TH%20AVE%2C+NEW%20YORK%2C+NY+10036",
        "lat": 40.761937599999996,
        "lng": -73.9904637742,
        "name": "ESCO DRUG CO INC",
        "postal": 10036,
        "source": "DEA",
        "source_date": "April2018",
        "state": "NY"
    },
    {
        "address": "471 LENOX AVENUE, NEW YORK, NY 10037",
        "googleMapsUrl": "http://maps.google.com/maps?q=LIFE%20PHARMA%20II%20INC%2C471%20LENOX%20AVENUE%2C+NEW%20YORK%2C+NY+10037",
        "lat": 40.7052516875,
        "lng": -73.5969090625,
        "name": "LIFE PHARMA II INC",
        "postal": 10037,
        "source": "DEA",
        "source_date": "April2018",
        "state": "NY"
    },
    {
        "address": "1498 YORK AVENUE, NEW YORK, NY 10075",
        "googleMapsUrl": "http://maps.google.com/maps?q=DUANE%20READE%2C1498%20YORK%20AVENUE%2C+NEW%20YORK%2C+NY+10075",
        "lat": 40.771522999999995,
        "lng": -73.95031999999999,
        "name": "DUANE READE",
        "postal": 10075,
        "source": "DEA",
        "source_date": "Dec2018",
        "state": "NY"
    },
    {
        "address": "1231 MADISON AVENUE, NEW YORK, NY 10128",
        "googleMapsUrl": "http://maps.google.com/maps?q=DUANE%20READE%2C1231%20MADISON%20AVENUE%2C+NEW%20YORK%2C+NY+10128",
        "lat": 40.782641999999996,
        "lng": -73.9575,
        "name": "DUANE READE",
        "postal": 10128,
        "source": "DEA",
        "source_date": "Dec2018",
        "state": "NY"
    },
    {
        "address": "99 STUYVESANT PL, STATEN ISLAND, NY 10301",
        "googleMapsUrl": "http://maps.google.com/maps?q=ST%20GEORGE%20PHARMACY%2C99%20STUYVESANT%20PL%2C+STATEN%20ISLAND%2C+NY+10301",
        "lat": 40.643895576300004,
        "lng": -74.0775042712,
        "name": "ST GEORGE PHARMACY",
        "postal": 10301,
        "source": "DEA",
        "source_date": "April2018",
        "state": "NY"
    },
    {
        "address": "395 FOREST AVENUE, STATEN ISLAND, NY 10301",
        "googleMapsUrl": "http://maps.google.com/maps?q=VICTORY%20RX%20LLC%2C395%20FOREST%20AVENUE%2C+STATEN%20ISLAND%2C+NY+10301",
        "lat": 40.631035,
        "lng": -74.10191999999999,
        "name": "VICTORY RX LLC",
        "postal": 10301,
        "source": "DEA",
        "source_date": "Dec2018",
        "state": "NY"
    },
    {
        "address": "1560 RICHMOND RD, STATEN ISLAND, NY 10304",
        "googleMapsUrl": "http://maps.google.com/maps?q=DONGAN%20HILLS%20PHARMACY%2C1560%20RICHMOND%20RD%2C+STATEN%20ISLAND%2C+NY+10304",
        "lat": 40.59187,
        "lng": -74.10095,
        "name": "DONGAN HILLS PHARMACY",
        "postal": 10304,
        "source": "DEA",
        "source_date": "Dec2018",
        "state": "NY"
    },
    {
        "address": "1361 HYLAN BLVD., STATEN ISLAND, NY 10305",
        "googleMapsUrl": "http://maps.google.com/maps?q=CVS%20ALBANY%20LLC%2C1361%20HYLAN%20BLVD.%2C+STATEN%20ISLAND%2C+NY+10305",
        "lat": 40.5985963,
        "lng": -74.0792412,
        "name": "CVS ALBANY, L.L.C.",
        "postal": 10305,
        "source": "DEA",
        "source_date": "April2018",
        "state": "NY"
    },