[
    {
        "address": "1315 WYOMING STE B, MISSOULA, MT 59801",
        "googleMapsUrl": "http://maps.google.com/maps?q=CLINIC%20PHARMACY%2C1315%20WYOMING%20STE%20B%2C+MISSOULA%2C+MT+59801",
        "lat": 46.871906,
        "lng": -114.01592,
        "name": "406 CLINIC PHARMACY",
        "postal": 59801,
        "source": "DEA",
        "source_date": "Dec2018",
        "state": "MT"
    },
    {
        "address": "1361 S. PATRICK DRIVE, PATRICK AFB, FL 32925",
        "googleMapsUrl": "http://maps.google.com/maps?q=TH%20MEDICAL%20GROUP%20SATELLITE%20PHARMACY%2C1361%20S.%20PATRICK%20DRIVE%2C+PATRICK%20AFB%2C+FL+32925",
        "lat": 28.217375300000004,
        "lng": -80.60467320000001,
        "name": "45TH MEDICAL GROUP SATELLITE PHARMACY",
        "postal": 32925,
        "source": "DEA",
        "source_date": "Dec2018",
        "state": "FL"
    },
    {
        "address": "210 SPRING STREET WEST, PO BOX 516, FRIDAY HARBOR, WA 98250",
        "googleMapsUrl": "http://maps.google.com/maps?q=A%20%20H%20STORES%2C210%20SPRING%20STREET%20WEST%2C+FRIDAY%20HARBOR%2C+WA+98250",
        "lat": 48.534134,
        "lng": -123.01700600000001,
        "name": "A & H STORES",
        "postal": 98250,
        "source": "DEA",
        "source_date": "Dec2018",
        "state": "WA"
    },
    {
        "address": "536 ABBOTT ST., SALINAS, CA 93901",
        "googleMapsUrl": "http://maps.google.com/maps?q=A%20%20O%20SPECIALTY%20PHARMACY%2C536%20ABBOTT%20ST.%2C+SALINAS%2C+CA+93901",
        "lat": 36.66493,
        "lng": -121.64361000000001,
        "name": "A & O SPECIALTY PHARMACY",
        "postal": 93901,
        "source": "DEA",
        "source_date": "Dec2018",
        "state": "CA"
    },
    {
        "address": "17833 1ST AVE. S. STE. C, NORMANDY PARK, WA 98148",
        "googleMapsUrl": "http://maps.google.com/maps?q=ACCESS%20PHARMACY%2C17833%201ST%20AVE.%20S.%20STE.%20C%2C+NORMANDY%20PARK%2C+WA+98148",
        "lat": 47.443090000000005,
        "lng": -122.33425,
        "name": "ACCESS PHARMACY",
        "postal": 98148,
        "source": "DEA",
        "source_date": "Dec2018",
        "state": "WA"
    },
    {
        "address": "1018 WEST ATHERTON DRIVE, SUITE 202, SALT LAKE CITY, UT 84123",
        "googleMapsUrl": "http://maps.google.com/maps?q=ACUPHARM%20LLC%2C1018%20WEST%20ATHERTON%20DRIVE%2C+SALT%20LAKE%20CITY%2C+UT+84123",
        "lat": 40.671079999999996,
        "lng": -111.92193600000002,
        "name": "ACUPHARM, LLC",
        "postal": 84123,
        "source": "DEA",
        "source_date": "Dec2018",
        "state": "UT"
    },
    {
        "address": "10820 MARVIN JONES BLVD, DOWLING PARK, FL 32060",
        "googleMapsUrl": "http://maps.google.com/maps?q=ACV%20COMMUNITY%20SERVICES%20LLC%2C10820%20MARVIN%20JONES%20BLVD%2C+DOWLING%20PARK%2C+FL+32060",
        "lat": 30.253909000000004,
        "lng": -83.235371,
        "name": "ACV COMMUNITY SERVICES LLC",
        "postal": 32060,
        "source": "DEA",
        "source_date": "Dec2018",
        "state": "FL"
    },
    {
        "address": "113 N. 9TH ST, ADEL, IA 50003",
        "googleMapsUrl": "http://maps.google.com/maps?q=ADEL%20HEALTHMART%2C113%20%20N.%209TH%20ST%2C+ADEL%2C+IA+50003",
        "lat": 41.617340000000006,
        "lng": -94.01874000000001,
        "name": "ADEL HEALTHMART",
        "postal": 50003,
        "source": "DEA",
        "source_date": "Dec2018",
        "state": "IA"
    },
    {
        "address": "4315 MAIN STREET, PORT HENRY, NY 12974",
        "googleMapsUrl": "http://maps.google.com/maps?q=ADIRONDACK%20APOTHECARY%20LLC%2C4315%20MAIN%20STREET%2C+PORT%20HENRY%2C+NY+12974",
        "lat": 44.048294,
        "lng": -73.459625,
        "name": "ADIRONDACK APOTHECARY LLC",
        "postal": 12974,
        "source": "DEA",
        "source_date": "Dec2018",
        "state": "NY"
    },
    {
        "address": "1325 N MAIN ST STE H, ADRIAN, MI 49221",
        "googleMapsUrl": "http://maps.google.com/maps?q=ADRIAN%20PHARMACY%20LLC%2C1325%20N%20MAIN%20ST%20STE%20H%2C+ADRIAN%2C+MI+49221",
        "lat": 41.880978000000006,
        "lng": -84.04325,
        "name": "ADRIAN PHARMACY LLC",
        "postal": 49221,
        "source": "DEA",
        "source_date": "Dec2018",
        "state": "MI"
    },
    {
        "address": "2000 S. MAYS STREET, SUITE 200, ROUND ROCK, TX 78664",
        "googleMapsUrl": "http://maps.google.com/maps?q=ADVANCED%20RX%20PHARMACY%2C2000%20S.%20MAYS%20STREET%2C+ROUND%20ROCK%2C+TX+78664",
        "lat": 30.528885,
        "lng": -97.68823,
        "name": "ADVANCED RX PHARMACY 030",
        "postal": 78664,
        "source": "DEA",
        "source_date": "Dec2018",
        "state": "TX"
    },
    {
        "address": "4800 S. SAGINAW ST., SUITE 1675, FLINT, MI 48507",
        "googleMapsUrl": "http://maps.google.com/maps?q=ADVANCED%20SPECIALTY%20RX%20LLC%2C4800%20S.%20SAGINAW%20ST.%2C+FLINT%2C+MI+48507",
        "lat": 42.982536100000004,
        "lng": -83.6760117,
        "name": "ADVANCED SPECIALTY RX LLC",
        "postal": 48507,
        "source": "DEA",
        "source_date": "Dec2018",
        "state": "MI"
    },
    {
        "address": "3685-A LEAPHART ROAD, WEST COLUMBIA, SC 29169",
        "googleMapsUrl": "http://maps.google.com/maps?q=AGAPE%20PHARMACY%2C3685-A%20LEAPHART%20ROAD%2C+WEST%20COLUMBIA%2C+SC+29169",
        "lat": 34.003464,
        "lng": -81.135666,
        "name": "AGAPE PHARMACY",
        "postal": 29169,
        "source": "DEA",
        "source_date": "Dec2018",
        "state": "SC"
    },
    {
        "address": "276 S. MILL ST., SUITE A, TEHACHAPI, CA 93561",
        "googleMapsUrl": "http://maps.google.com/maps?q=AGIA%20PHARMACY%20%20CAFE%2C276%20S.%20MILL%20ST.%2C+TEHACHAPI%2C+CA+93561",
        "lat": 35.13085,
        "lng": -118.45265,
        "name": "AGIA PHARMACY & CAFE",
        "postal": 93561,
        "source": "DEA",
        "source_date": "Dec2018",
        "state": "CA"
    },
    {
        "address": "1230 N. HIGH STREET, COLUMBUS, OH 43201",
        "googleMapsUrl": "http://maps.google.com/maps?q=AHF%20PHARMACY%2C1230%20N.%20HIGH%20STREET%2C+COLUMBUS%2C+OH+43201",
        "lat": 39.98753,
        "lng": -83.00559,
        "name": "AHF PHARMACY",
        "postal": 43201,
        "source": "DEA",
        "source_date": "Dec2018",
        "state": "OH"
    },
    {
        "address": "1858 CHESHIRE BRIDGE ROAD NE, ATLANTA, GA 30324",
        "googleMapsUrl": "http://maps.google.com/maps?q=AHF%20PHARMACY%2C1858%20CHESHIRE%20BRIDGE%20ROAD%20NE%2C+ATLANTA%2C+GA+30324",
        "lat": 33.809395,
        "lng": -84.36189,
        "name": "AHF PHARMACY",
        "postal": 30324,
        "source": "DEA",
        "source_date": "Dec2018",
        "state": "GA"
    },
    {
        "address": "3920 CEDAR SPRINGS ROAD, DALLAS, TX 75219",
        "googleMapsUrl": "http://maps.google.com/maps?q=AHF%20PHARMACY%2C3920%20CEDAR%20SPRINGS%20ROAD%2C+DALLAS%2C+TX+75219",
        "lat": 32.81022,
        "lng": -96.81018,
        "name": "AHF PHARMACY",
        "postal": 75219,
        "source": "DEA",
        "source_date": "Dec2018",
        "state": "TX"
    },
    {
        "address": "400 N BEACH STREET, STE 102, FORT WORTH, TX 76111",
        "googleMapsUrl": "http://maps.google.com/maps?q=AHF%20PHARMACY%2C400%20N%20BEACH%20STREET%2C%20STE%20102%2C+FORT%20WORTH%2C+TX+76111",
        "lat": 32.762177,
        "lng": -97.2877,
        "name": "AHF PHARMACY",
        "postal": 76111,
        "source": "DEA",
        "source_date": "Dec2018",
        "state": "TX"
    },
    {
        "address": "1701 NORTH MILLS AVENUE, ORLANDO, FL 32803",
        "googleMapsUrl": "http://maps.google.com/maps?q=AIDS%20HEALTHCARE%20FOUNDATION%2C1701%20NORTH%20MILLS%20AVENUE%2C+ORLANDO%2C+FL+32803",
        "lat": 28.566934999999997,
        "lng": -81.36444,
        "name": "AIDS HEALTHCARE FOUNDATION",
        "postal": 32803,
        "source": "DEA",
        "source_date": "Dec2018",
        "state": "FL"
    },
    {
        "address": "2 SHIRCLIFF WAY, SUITE 900, JACKSONVILLE, FL 32204",
        "googleMapsUrl": "http://maps.google.com/maps?q=AIDS%20HEALTHCARE%20FOUNDATION%2C2%20SHIRCLIFF%20WAY%2C+JACKSONVILLE%2C+FL+32204",
        "lat": 30.3071989,
        "lng": -81.68987220000001,
        "name": "AIDS HEALTHCARE FOUNDATION",
        "postal": 32204,
        "source": "DEA",
        "source_date": "Dec2018",
        "state": "FL"
    },
    {
        "address": "2097 WILTON DR, WILTON MANORS, FL 33305",
        "googleMapsUrl": "http://maps.google.com/maps?q=AIDS%20HEALTHCARE%20FOUNDATION%2C2097%20WILTON%20DR%2C+WILTON%20MANORS%2C+FL+33305",
        "lat": 26.154255,
        "lng": -80.14005999999999,
        "name": "AIDS HEALTHCARE FOUNDATION",
        "postal": 33305,
        "source": "DEA",
        "source_date": "Dec2018",
        "state": "FL"
    },
    {
        "address": "2900 N. BISCAYNE BLVD., MIAMI, FL 33137",
        "googleMapsUrl": "http://maps.google.com/maps?q=AIDS%20HEALTHCARE%20FOUNDATION%2C2900%20N.%20BISCAYNE%20BLVD.%2C+MIAMI%2C+FL+33137",
        "lat": 25.80432,
        "lng": -80.18938,
        "name": "AIDS HEALTHCARE FOUNDATION",
        "postal": 33137,
        "source": "DEA",
        "source_date": "Dec2018",
        "state": "FL"
    },
    {
        "address": "3135 SR 580, SUITE 1, SAFETY HARBOR, FL 34695",
        "googleMapsUrl": "http://maps.google.com/maps?q=AIDS%20HEALTHCARE%20FOUNDATION%2C3135%20SR%20580%2C+SAFETY%20HARBOR%2C+FL+34695",
        "lat": 28.0243335,
        "lng": -82.707072,
        "name": "AIDS HEALTHCARE FOUNDATION",
        "postal": 34695,
        "source": "DEA",
        "source_date": "Dec2018",
        "state": "FL"
    },
    {
        "address": "3400 26TH AVE S, ST PETERSBURG, FL 33711",
        "googleMapsUrl": "http://maps.google.com/maps?q=AIDS%20HEALTHCARE%20FOUNDATION%2C3400%2026TH%20AVE%20S%2C+ST%20PETERSBURG%2C+FL+33711",
        "lat": 27.744691999999997,
        "lng": -82.679436,
        "name": "AIDS HEALTHCARE FOUNDATION",
        "postal": 33711,
        "source": "DEA",
        "source_date": "Dec2018",
        "state": "FL"
    },
    {
        "address": "475 ATLANTIC AVE, BROOKLYN, NY 11217",
        "googleMapsUrl": "http://maps.google.com/maps?q=AIDS%20HEALTHCARE%20FOUNDATION%2C475%20ATLANTIC%20AVE%2C+BROOKLYN%2C+NY+11217",
        "lat": 40.685825,
        "lng": -73.98195,
        "name": "AIDS HEALTHCARE FOUNDATION",
        "postal": 11217,
        "source": "DEA",
        "source_date": "Dec2018",
        "state": "NY"
    },
    {
        "address": "6405 N. FEDERAL HIGHWAY, #205, FT LAUDERDALE, FL 33308",
        "googleMapsUrl": "http://maps.google.com/maps?q=AIDS%20HEALTHCARE%20FOUNDATION%2C6405%20N.%20FEDERAL%20HIGHWAY%2C+FT%20LAUDERDALE%2C+FL+33308",
        "lat": 26.20681,
        "lng": -80.108086,
        "name": "AIDS HEALTHCARE FOUNDATION",
        "postal": 33308,
        "source": "DEA",
        "source_date": "Dec2018",
        "state": "FL"
    },
    {
        "address": "700 SE 3RD AVENUE, SUITE 100, FT LAUDERDALE, FL 33316",
        "googleMapsUrl": "http://maps.google.com/maps?q=AIDS%20HEALTHCARE%20FOUNDATION%2C700%20SE%203RD%20AVENUE%2C+FT%20LAUDERDALE%2C+FL+33316",
        "lat": 26.113012,
        "lng": -80.140175,
        "name": "AIDS HEALTHCARE FOUNDATION",
        "postal": 33316,
        "source": "DEA",
        "source_date": "Dec2018",
        "state": "FL"
    },
    {
        "address": "3500 E. PACIFIC COAST HIGHWAY, LONG BEACH, CA 90804",
        "googleMapsUrl": "http://maps.google.com/maps?q=AIDS%20HEALTHCARE%20FOUNDATION%20DBA%20AHF%20PHARMACY%2C3500%20E.%20PACIFIC%20COAST%20HIGHWAY%2C+LONG%20BEACH%2C+CA+90804",
        "lat": 33.789875,
        "lng": -118.15126000000001,
        "name": "AIDS HEALTHCARE FOUNDATION DBA AHF PHARMACY",
        "postal": 90804,
        "source": "DEA",
        "source_date": "Dec2018",
        "state": "CA"
    },
    {
        "address": "4071 18TH STR., SAN FRANCISCO, CA 94114",
        "googleMapsUrl": "http://maps.google.com/maps?q=AIDS%20HEALTHCARE%20FOUNDATION%20DBA%20AHF%20PHARMACY%2C4071%2018TH%20STR.%2C+SAN%20FRANCISCO%2C+CA+94114",
        "lat": 37.760914,
        "lng": -122.43436399999999,
        "name": "AIDS HEALTHCARE FOUNDATION DBA AHF PHARMACY",
        "postal": 94114,
        "source": "DEA",
        "source_date": "Dec2018",
        "state": "CA"
    },
    {
        "address": "4890 BLUEBONNET BLVD., BATON ROUGE, LA 70809",
        "googleMapsUrl": "http://maps.google.com/maps?q=AIDS%20HEALTHCARE%20FOUNDATION%20DBA%20AHF%20PHARMACY%2C4890%20BLUEBONNET%20BLVD.%2C+BATON%20ROUGE%2C+LA+70809",
        "lat": 30.403309999999998,
        "lng": -91.08372,
        "name": "AIDS HEALTHCARE FOUNDATION DBA AHF PHARMACY",
        "postal": 70809,
        "source": "DEA",
        "source_date": "Dec2018",
        "state": "LA"
    },
    {
        "address": "6210 SUNSET BLVD., LOS ANGELES, CA 90028",
        "googleMapsUrl": "http://maps.google.com/maps?q=AIDS%20HEALTHCARE%20FOUNDATION%20DBA%20AHF%20PHARMACY%2C6210%20SUNSET%20BLVD.%2C+LOS%20ANGELES%2C+CA+90028",
        "lat": 34.09799,
        "lng": -118.325226,
        "name": "AIDS HEALTHCARE FOUNDATION DBA AHF PHARMACY",
        "postal": 90028,
        "source": "DEA",
        "source_date": "Dec2018",
        "state": "CA"
    },
    {
        "address": "1785 E. SUNRISE BLVD., FORT LAUDERDALE, FL 33304",
        "googleMapsUrl": "http://maps.google.com/maps?q=AIDS%20HEALTHCARE%20FOUNDATION%20DBA%20AHF%20PHARMACY%2C1785%20E.%20SUNRISE%20BLVD.%2C+FORT%20LAUDERDALE%2C+FL+33304",
        "lat": 26.137379,
        "lng": -80.12252,
        "name": "AIDS HEALTHCARE FOUNDATION, DBA AHF PHARMACY",
        "postal": 33304,
        "source": "DEA",
        "source_date": "Dec2018",
        "state": "FL"
    },
    {
        "address": "11919 W. SPRAGUE AVENUE, P O BOX 1899, AIRWAY HEIGHTS, WA 99001",
        "googleMapsUrl": "http://maps.google.com/maps?q=AIRWAY%20HGHTS%20CORRECTIONS%20CTR%2C11919%20W.%20SPRAGUE%20AVENUE%2C+AIRWAY%20HEIGHTS%2C+WA+99001",
        "lat": 47.657276,
        "lng": -117.58006999999999,
        "name": "AIRWAY HGHTS CORRECTIONS CTR",
        "postal": 99001,
        "source": "DEA",
        "source_date": "Dec2018",
        "state": "WA"
    },
    {
        "address": "2222 MAIN STREET, CAMBRIA, CA 93428",
        "googleMapsUrl": "http://maps.google.com/maps?q=ALS%20PHARMACY%20AND%20COMPOUNDING%20CENTER%20INC%2C2222%20MAIN%20STREET%2C+CAMBRIA%2C+CA+93428",
        "lat": 35.564034,
        "lng": -121.08243,
        "name": "AL'S PHARMACY AND COMPOUNDING CENTER, INC.",
        "postal": 93428,
        "source": "DEA",
        "source_date": "Dec2018",
        "state": "CA"
    },
    {
        "address": "177 N BARLOW, LINCOLN, MI 48742",
        "googleMapsUrl": "http://maps.google.com/maps?q=ALCONA%20HEALTH%20CENTER%20PHARMACY%2C177%20N%20BARLOW%2C+LINCOLN%2C+MI+48742",
        "lat": 44.66053,
        "lng": -83.403046,
        "name": "ALCONA HEALTH CENTER PHARMACY",
        "postal": 48742,
        "source": "DEA",
        "source_date": "Dec2018",
        "state": "MI"
    },
    {
        "address": "1185 US 23 NORTH, ALPENA, MI 49707",
        "googleMapsUrl": "http://maps.google.com/maps?q=ALCONA%20HEALTH%20CENTER%20PHARMACY%20SERVICES%2C1185%20US%2023%20NORTH%2C+ALPENA%2C+MI+49707",
        "lat": 45.0912911,
        "lng": -83.4584597,
        "name": "ALCONA HEALTH CENTER PHARMACY SERVICES",
        "postal": 49707,
        "source": "DEA",
        "source_date": "Dec2018",
        "state": "MI"
    },
    {
        "address": "13203 BROADWAY, ALDEN, NY 14004",
        "googleMapsUrl": "http://maps.google.com/maps?q=ALDEN%20PHARMACY%20INC%2C13203%20BROADWAY%2C+ALDEN%2C+NY+14004",
        "lat": 42.900203999999995,
        "lng": -78.49611999999999,
        "name": "ALDEN PHARMACY INC",
        "postal": 14004,
        "source": "DEA",
        "source_date": "Dec2018",
        "state": "NY"
    },
    {
        "address": "25680 104TH AVE SE, KENT, WA 98030",
        "googleMapsUrl": "http://maps.google.com/maps?q=ALEXANDRIA%20DRUGS%20LLC%2C25680%20104TH%20AVE%20SE%2C+KENT%2C+WA+98030",
        "lat": 47.372066,
        "lng": -122.2024,
        "name": "ALEXANDRIA DRUGS LLC",
        "postal": 98030,
        "source": "DEA",
        "source_date": "Dec2018",
        "state": "WA"
    },
    {
        "address": "515 MINOR AVE, SUITE# 120, SEATTLE, WA 98104",
        "googleMapsUrl": "http://maps.google.com/maps?q=ALEXANDRIA%20DRUGS%20LLC%2C515%20MINOR%20AVE%2C+SEATTLE%2C+WA+98104",
        "lat": 47.606915,
        "lng": -122.32141999999999,
        "name": "ALEXANDRIA DRUGS, LLC",
        "postal": 98104,
        "source": "DEA",
        "source_date": "Dec2018",
        "state": "WA"
    },
    {
        "address": "36 N MAIN ST, ALFRED, NY 14802",
        "googleMapsUrl": "http://maps.google.com/maps?q=ALFRED%20PHARMACY%2C36%20N%20MAIN%20ST%2C+ALFRED%2C+NY+14802",
        "lat": 42.255573,
        "lng": -77.79,
        "name": "ALFRED PHARMACY",
        "postal": 14802,
        "source": "DEA",
        "source_date": "Dec2018",
        "state": "NY"
    },
    {
        "address": "133 PARK STREET, MALONE, NY 12953",
        "googleMapsUrl": "http://maps.google.com/maps?q=ALICE%20HYDE%20MEDICAL%20CENTER%2C133%20PARK%20STREET%2C+MALONE%2C+NY+12953",
        "lat": 44.856834,
        "lng": -74.29198000000001,
        "name": "ALICE HYDE MEDICAL CENTER",
        "postal": 12953,
        "source": "DEA",
        "source_date": "Dec2018",
        "state": "NY"
    },
    {
        "address": "10132 WEST 76TH STREET, EDEN PRAIRIE, MN 55344",
        "googleMapsUrl": "http://maps.google.com/maps?q=ALIXA%20RX%20LLC%2C10132%20WEST%2076TH%20STREET%2C+EDEN%20PRAIRIE%2C+MN+55344",
        "lat": 44.86614,
        "lng": -93.406425,
        "name": "ALIXA RX LLC",
        "postal": 55344,
        "source": "DEA",
        "source_date": "Dec2018",
        "state": "MN"
    },
    {
        "address": "902 SOUTH 6TH STREET, COUNCIL BLUFFS, IA 51501",
        "googleMapsUrl": "http://maps.google.com/maps?q=ALL%20CARE%20HEALTH%20CENTER%2C902%20SOUTH%206TH%20STREET%2C+COUNCIL%20BLUFFS%2C+IA+51501",
        "lat": 41.253338,
        "lng": -95.85305,
        "name": "ALL CARE HEALTH CENTER",
        "postal": 51501,
        "source": "DEA",
        "source_date": "Dec2018",
        "state": "IA"
    },
    {
        "address": "331 MAIN STREET, SALINAS, CA 93901",
        "googleMapsUrl": "http://maps.google.com/maps?q=ALLCARE%20PHARMACY%2C331%20MAIN%20STREET%2C+SALINAS%2C+CA+93901",
        "lat": 36.67285,
        "lng": -121.65465,
        "name": "ALLCARE PHARMACY",
        "postal": 93901,
        "source": "DEA",
        "source_date": "Dec2018",
        "state": "CA"
    },
    {
        "address": "146 WEST DALE ST, STE 103, WATERLOO, IA 50703",
        "googleMapsUrl": "http://maps.google.com/maps?q=ALLEN%20CLINIC%20PHARMACY%2C146%20WEST%20DALE%20ST%2C+WATERLOO%2C+IA+50703",
        "lat": 42.525776,
        "lng": -92.34022,
        "name": "ALLEN CLINIC PHARMACY",
        "postal": 50703,
        "source": "DEA",
        "source_date": "Dec2018",
        "state": "IA"
    },
    {
        "address": "9397 CROWN CREST BLVD, STE 101, PARKER, CO 80138",
        "googleMapsUrl": "http://maps.google.com/maps?q=ALLHEALTH%20NETWORK%20PHARMACY%20AT%20PARKER%2C9397%20CROWN%20CREST%20BLVD%2C+PARKER%2C+CO+80138",
        "lat": 39.548378,
        "lng": -104.76929399999999,
        "name": "ALLHEALTH NETWORK PHARMACY AT PARKER",
        "postal": 80138,
        "source": "DEA",
        "source_date": "Dec2018",
        "state": "CO"
    },
    {
        "address": "1245 HIGHLAND AVE, ABINGTON, PA 19001",
        "googleMapsUrl": "http://maps.google.com/maps?q=ALLIANCE%20PHARMACY%20CO%2C1245%20HIGHLAND%20AVE%2C+ABINGTON%2C+PA+19001",
        "lat": 40.118996,
        "lng": -75.12223,
        "name": "ALLIANCE PHARMACY CO",
        "postal": 19001,
        "source": "DEA",
        "source_date": "Dec2018",
        "state": "PA"
    },
    {
        "address": "110 W. MAIN ST., CAMPBELLSPORT, WI 53010",
        "googleMapsUrl": "http://maps.google.com/maps?q=ALMOATASIM%20LLC%2C110%20W.%20MAIN%20ST.%2C+CAMPBELLSPORT%2C+WI+53010",
        "lat": 43.59816,
        "lng": -88.28548,
        "name": "ALMOATASIM, LLC",
        "postal": 53010,
        "source": "DEA",
        "source_date": "Dec2018",
        "state": "WI"
    },
    {
        "address": "DBA NORTHLAND MEDICAL BLDG., 20905 GREENFIELD ROAD, SOUTHFIELD, MI 48075",
        "googleMapsUrl": "http://maps.google.com/maps?q=ALPHARM%20CORPORATION%2CDBA%20NORTHLAND%20MEDICAL%20BLDG.%2C+SOUTHFIELD%2C+MI+48075",
        "lat": 42.46,
        "lng": -83.21,
        "name": "ALPHARM CORPORATION",
        "postal": 48075,
        "source": "DEA",
        "source_date": "Dec2018",
        "state": "MI"
    },
    {
        "address": "6475 HIGHWAY 93 SOUTH, WHITEFISH, MT 59937",
        "googleMapsUrl": "http://maps.google.com/maps?q=ALPINE%20APOTHECARY%2C6475%20HIGHWAY%2093%20SOUTH%2C+WHITEFISH%2C+MT+59937",
        "lat": 48.394659999999995,
        "lng": -114.333767,
        "name": "ALPINE APOTHECARY",
        "postal": 59937,
        "source": "DEA",
        "source_date": "Dec2018",
        "state": "MT"
    },
    {
        "address": "1380 COLUMBIA RD S, GRAND FORKS, ND 58201",
        "googleMapsUrl": "http://maps.google.com/maps?q=ALTRU%20CLINIC%20PHARMACY%20%20FAMILY%20MED%20CTR%20INC%2C1380%20COLUMBIA%20RD%20S%2C+GRAND%20FORKS%2C+ND+58201",
        "lat": 47.9078599,
        "lng": -97.068138,
        "name": "ALTRU CLINIC PHARMACY - FAMILY MED CTR INC",
        "postal": 58201,
        "source": "DEA",
        "source_date": "Dec2018",
        "state": "ND"
    },
    {
        "address": "1200 SOUTH COLUMBIA ROAD, GRAND FORKS, ND 58201",
        "googleMapsUrl": "http://maps.google.com/maps?q=ALTRU%20HEALTH%20SYSTEM%2C1200%20SOUTH%20COLUMBIA%20ROAD%2C+GRAND%20FORKS%2C+ND+58201",
        "lat": 47.910194,
        "lng": -97.066475,
        "name": "ALTRU HEALTH SYSTEM",
        "postal": 58201,
        "source": "DEA",
        "source_date": "Dec2018",
        "state": "ND"
    },
    {
        "address": "1855 ALUM ROCK AVE SUITE A, SAN JOSE, CA 95116",
        "googleMapsUrl": "http://maps.google.com/maps?q=ALUM%20ROCK%20PHARMACY%20INC%2C1855%20ALUM%20ROCK%20AVE%20SUITE%20A%2C+SAN%20JOSE%2C+CA+95116",
        "lat": 37.354134,
        "lng": -121.85278000000001,
        "name": "ALUM ROCK PHARMACY INC",
        "postal": 95116,
        "source": "DEA",
        "source_date": "Dec2018",
        "state": "CA"
    },
    {
        "address": "1381 UNIVERSITY ST SUITE A, HEALDSBURG, CA 95448",
        "googleMapsUrl": "http://maps.google.com/maps?q=AMC%20COMMUNITY%20PHARMACY%2C1381%20UNIVERSITY%20ST%20SUITE%20A%2C+HEALDSBURG%2C+CA+95448",
        "lat": 38.627026,
        "lng": -122.863754,
        "name": "AMC COMMUNITY PHARMACY",
        "postal": 95448,
        "source": "DEA",
        "source_date": "Dec2018",
        "state": "CA"
    },
    {
        "address": "750 E LONG ST, SUITE 3100, COLUMBUS, OH 43203",
        "googleMapsUrl": "http://maps.google.com/maps?q=AMC%20OHIO%20LLC%20DBA%20EQUITAS%20HEALTH%20PHARMACY%2C750%20E%20LONG%20ST%2C+COLUMBUS%2C+OH+43203",
        "lat": 39.967240000000004,
        "lng": -82.98135,
        "name": "AMC OHIO LLC, DBA EQUITAS HEALTH PHARMACY #3",
        "postal": 43203,
        "source": "DEA",
        "source_date": "Dec2018",
        "state": "OH"
    },
    {
        "address": "2503 E 54TH ST. N, SIOUX FALLS, SD 57104",
        "googleMapsUrl": "http://maps.google.com/maps?q=AMERIPHARM%20INC%2C2503%20E%2054TH%20ST.%20N%2C+SIOUX%20FALLS%2C+SD+57104",
        "lat": 43.594696,
        "lng": -96.71699,
        "name": "AMERIPHARM, INC",
        "postal": 57104,
        "source": "DEA",
        "source_date": "Dec2018",
        "state": "SD"
    },
    {
        "address": "265 E GRIFFIN ST, AMERY, WI 54001",
        "googleMapsUrl": "http://maps.google.com/maps?q=AMERY%20REGIONAL%20MEDICAL%20CENTER%2C265%20E%20GRIFFIN%20ST%2C+AMERY%2C+WI+54001",
        "lat": 45.2968696,
        "lng": -92.36109609999998,
        "name": "AMERY REGIONAL MEDICAL CENTER",
        "postal": 54001,
        "source": "DEA",
        "source_date": "Dec2018",
        "state": "WI"
    },
    {
        "address": "5001 NW 34TH BLVD SUITE B, GAINESVILLE, FL 32605",
        "googleMapsUrl": "http://maps.google.com/maps?q=ANDERSONSCOKELEE%20INC%2C5001%20NW%2034TH%20BLVD%20SUITE%20B%2C+GAINESVILLE%2C+FL+32605",
        "lat": 29.700609999999998,
        "lng": -82.37291,
        "name": "ANDERSON-SCOKELEE, INC",
        "postal": 32605,
        "source": "DEA",
        "source_date": "Dec2018",
        "state": "FL"
    },
    {
        "address": "495 DUNLOP LANE, SUITE 106, CLARKSVILLE, TN 37040",
        "googleMapsUrl": "http://maps.google.com/maps?q=ANESTHESIA%20SERVICES%20ASSOCIATES%20PLLC%2C495%20DUNLOP%20LANE%2C+CLARKSVILLE%2C+TN+37040",
        "lat": 36.58062,
        "lng": -87.27658000000001,
        "name": "ANESTHESIA SERVICES ASSOCIATES, PLLC",
        "postal": 37040,
        "source": "DEA",
        "source_date": "Dec2018",
        "state": "TN"
    },
    {
        "address": "3625 N ANKENY BLVD, SUITE A, ANKENY, IA 50023",
        "googleMapsUrl": "http://maps.google.com/maps?q=ANKENY%20MEDICAL%20PARK%20PHARMACY%2C3625%20N%20ANKENY%20BLVD%2C+ANKENY%2C+IA+50023",
        "lat": 41.75543629999999,
        "lng": -93.59953420000001,
        "name": "ANKENY MEDICAL PARK PHARMACY",
        "postal": 50023,
        "source": "DEA",
        "source_date": "Dec2018",
        "state": "IA"
    },
    {
        "address": "6 W. MICHIGAN AVE, YPSILANTI, MI 48197",
        "googleMapsUrl": "http://maps.google.com/maps?q=ANN%20ARBOR%20PROFESSIONAL%20PHARMACY%2C6%20W.%20MICHIGAN%20AVE%2C+YPSILANTI%2C+MI+48197",
        "lat": 42.24106,
        "lng": -83.61206,
        "name": "ANN ARBOR PROFESSIONAL PHARMACY",
        "postal": 48197,
        "source": "DEA",
        "source_date": "Dec2018",
        "state": "MI"
    },
    {
        "address": "DBA MEDICINE SHOPPE OF NEW SMY, 1141 N DIXIE FREEWAY, NEW SMYRNA BEACH, FL 32168",
        "googleMapsUrl": "http://maps.google.com/maps?q=APB%20%20J%20CORP%2CDBA%20MEDICINE%20SHOPPE%20OF%20NEW%20SMY%2C+NEW%20SMYRNA%20BEACH%2C+FL+32168",
        "lat": 29.0431289,
        "lng": -80.9337124,
        "name": "APB & J CORP",
        "postal": 32168,
        "source": "DEA",
        "source_date": "Dec2018",
        "state": "FL"
    },
    {
        "address": "82 MAIN STREET, PO BOX 919, MEADVILLE, MS 39653",
        "googleMapsUrl": "http://maps.google.com/maps?q=APOTHECARELLC%2C82%20MAIN%20STREET%2C+MEADVILLE%2C+MS+39653",
        "lat": 31.472545,
        "lng": -90.89228299999999,
        "name": "APOTHECARE,LLC",
        "postal": 39653,
        "source": "DEA",
        "source_date": "Dec2018",
        "state": "MS"
    },
    {
        "address": "1040 NW 22ND AVE, STE 100, PORTLAND, OR 97210",
        "googleMapsUrl": "http://maps.google.com/maps?q=APOTHECARY%20AT%20GOOD%20SAMARITAN%2C1040%20NW%2022ND%20AVE%2C+PORTLAND%2C+OR+97210",
        "lat": 45.530125,
        "lng": -122.69657,
        "name": "APOTHECARY AT GOOD SAMARITAN",
        "postal": 97210,
        "source": "DEA",
        "source_date": "Dec2018",
        "state": "OR"
    },
    {
        "address": "2121 N.E. 139TH STREET, SUITE 310, VANCOUVER, WA 98686",
        "googleMapsUrl": "http://maps.google.com/maps?q=APOTHECARY%20AT%20SALMON%20CREEK%2C2121%20N.E.%20139TH%20STREET%2C+VANCOUVER%2C+WA+98686",
        "lat": 45.721848,
        "lng": -122.65,
        "name": "APOTHECARY AT SALMON CREEK",
        "postal": 98686,
        "source": "DEA",
        "source_date": "Dec2018",
        "state": "WA"
    },
    {
        "address": "207 EAST MAIN STREET, REMINGTON, VA 22734",
        "googleMapsUrl": "http://maps.google.com/maps?q=APOTHECARY%20SOLUTIONS%20LLC%2C207%20EAST%20MAIN%20STREET%2C+REMINGTON%2C+VA+22734",
        "lat": 38.5331843,
        "lng": -77.80704159999999,
        "name": "APOTHECARY SOLUTIONS LLC",
        "postal": 22734,
        "source": "DEA",
        "source_date": "Dec2018",
        "state": "VA"
    },
    {
        "address": "DUSKIN CORY, 540 N WEST AVENUE, ARLINGTON, WA 98223",
        "googleMapsUrl": "http://maps.google.com/maps?q=ARLINGTON%20PHARMACY%2CDUSKIN%20CORY%2C+ARLINGTON%2C+WA+98223",
        "lat": 48.198271999999996,
        "lng": -122.12863999999999,
        "name": "ARLINGTON PHARMACY",
        "postal": 98223,
        "source": "DEA",
        "source_date": "Dec2018",
        "state": "WA"
    },
    {
        "address": "3700 NORTH CAPITOL ST, NW, SHERMAN BLDG, ROOM 103, WASHINGTON, DC 20011",
        "googleMapsUrl": "http://maps.google.com/maps?q=ARMED%20FORCES%20RETIREMENT%20HOME%2C3700%20NORTH%20CAPITOL%20ST%2C%20NW%2C+WASHINGTON%2C+DC+20011",
        "lat": 38.94275,
        "lng": -77.007975,
        "name": "ARMED FORCES RETIREMENT HOME",
        "postal": 20011,
        "source": "DEA",
        "source_date": "Dec2018",
        "state": "DC"
    },
    {
        "address": "3650 W ARMITAGE AVE, STE 100, CHICAGO, IL 60647",
        "googleMapsUrl": "http://maps.google.com/maps?q=ARMITAGE%20PHARMACY%20INC%2C3650%20W%20ARMITAGE%20AVE%2C+CHICAGO%2C+IL+60647",
        "lat": 41.91728,
        "lng": -87.71839,
        "name": "ARMITAGE PHARMACY, INC.",
        "postal": 60647,
        "source": "DEA",
        "source_date": "Dec2018",
        "state": "IL"
    },
    {
        "address": "1725 TIMBER LINE ROAD, MAUMEE, OH 43537",
        "googleMapsUrl": "http://maps.google.com/maps?q=ARROWHEAD%20BEHAVIORAL%20HEALTH%2C1725%20TIMBER%20LINE%20ROAD%2C+MAUMEE%2C+OH+43537",
        "lat": 41.58951,
        "lng": -83.68744000000001,
        "name": "ARROWHEAD BEHAVIORAL HEALTH",
        "postal": 43537,
        "source": "DEA",
        "source_date": "Dec2018",
        "state": "OH"
    },
    {
        "address": "1446 LEE BLVD, LEHIGH ACRES, FL 33936",
        "googleMapsUrl": "http://maps.google.com/maps?q=ARTH%20LLC%2C1446%20%20LEE%20BLVD%2C+LEHIGH%20ACRES%2C+FL+33936",
        "lat": 26.6143507,
        "lng": -81.6562556,
        "name": "ARTH LLC",
        "postal": 33936,
        "source": "DEA",
        "source_date": "Dec2018",
        "state": "FL"
    },
    {
        "address": "PRINCETON PLAZA PHARMACY, 1800 MERCY DRIVE, ORLANDO, FL 32808",
        "googleMapsUrl": "http://maps.google.com/maps?q=ASPIRE%20HEALTH%20PARTNERS%20INC%2CPRINCETON%20PLAZA%20PHARMACY%2C+ORLANDO%2C+FL+32808",
        "lat": 28.56,
        "lng": -81.43,
        "name": "ASPIRE HEALTH PARTNERS, INC.",
        "postal": 32808,
        "source": "DEA",
        "source_date": "Dec2018",
        "state": "FL"
    },
    {
        "address": "1400 WEST ICE LAKE ROAD, IRON RIVER, MI 49935",
        "googleMapsUrl": "http://maps.google.com/maps?q=ASPIRUS%20IRON%20RIVER%20HOSPITAL%20%20CLINICS%20INC%2C1400%20WEST%20ICE%20LAKE%20ROAD%2C+IRON%20RIVER%2C+MI+49935",
        "lat": 46.099841,
        "lng": -88.61967299999999,
        "name": "ASPIRUS IRON RIVER HOSPITAL & CLINICS, INC",
        "postal": 49935,
        "source": "DEA",
        "source_date": "Dec2018",
        "state": "MI"
    },
    {
        "address": "PHARMACY, 1601 STATE AVE NW, OWATONNA, MN 55060",
        "googleMapsUrl": "http://maps.google.com/maps?q=ASTRUP%20DRUG%20INC%2CPHARMACY%2C+OWATONNA%2C+MN+55060",
        "lat": 44.0884391,
        "lng": -93.2306349,
        "name": "ASTRUP DRUG INC",
        "postal": 55060,
        "source": "DEA",
        "source_date": "Dec2018",
        "state": "MN"
    },
    {
        "address": "800 RAVEN HILL DRIVE, ATCHISON, KS 66002",
        "googleMapsUrl": "http://maps.google.com/maps?q=ATCHISON%20HOSPITAL%20ASSOCIATION%2C800%20RAVEN%20HILL%20DRIVE%2C+ATCHISON%2C+KS+66002",
        "lat": 39.5366253,
        "lng": -95.12823859999999,
        "name": "ATCHISON HOSPITAL ASSOCIATION",
        "postal": 66002,
        "source": "DEA",
        "source_date": "Dec2018",
        "state": "KS"
    },
    {
        "address": "260 WEST MAIN STREET, SUITE 217, HENDERSONVILLE, TN 37075",
        "googleMapsUrl": "http://maps.google.com/maps?q=ATRIUM%20PHARMACY%2C260%20WEST%20MAIN%20STREET%2C+HENDERSONVILLE%2C+TN+37075",
        "lat": 36.30515,
        "lng": -86.61848,
        "name": "ATRIUM PHARMACY",
        "postal": 37075,
        "source": "DEA",
        "source_date": "Dec2018",
        "state": "TN"
    },
    {
        "address": "155 KINGSLEY LANE, STE 125, NORFOLK, VA 23505",
        "googleMapsUrl": "http://maps.google.com/maps?q=ATRIUM%20PHARMACY%20AT%20DEPAUL%2C155%20KINGSLEY%20LANE%2C+NORFOLK%2C+VA+23505",
        "lat": 36.8983,
        "lng": -76.28130999999999,
        "name": "ATRIUM PHARMACY AT DEPAUL",
        "postal": 23505,
        "source": "DEA",
        "source_date": "Dec2018",
        "state": "VA"
    },
    {
        "address": "2565 HORIZON LAKE BLVD., STE. 113, MEMPHIS, TN 38133",
        "googleMapsUrl": "http://maps.google.com/maps?q=ATRIUM%20PHARMACY%20MEMPHIS%2C2565%20HORIZON%20LAKE%20BLVD.%2C+MEMPHIS%2C+TN+38133",
        "lat": 35.19536,
        "lng": -89.79706999999999,
        "name": "ATRIUM PHARMACY MEMPHIS",
        "postal": 38133,
        "source": "DEA",
        "source_date": "Dec2018",
        "state": "TN"
    },
    {
        "address": "1120 15TH STREET, ROOM BI-2101, AUGUSTA, GA 30912",
        "googleMapsUrl": "http://maps.google.com/maps?q=AU%20MEDICAL%20CENTER%20INPATIENT%20PHARMACY%2C1120%2015TH%20STREET%2C%20ROOM%20BI-2101%2C+AUGUSTA%2C+GA+30912",
        "lat": 33.4712295,
        "lng": -81.98993670000002,
        "name": "AU MEDICAL CENTER INPATIENT PHARMACY",
        "postal": 30912,
        "source": "DEA",
        "source_date": "Dec2018",
        "state": "GA"
    },
    {
        "address": "1011 BAPTISTE DRIVE, PAOLA, KS 66071",
        "googleMapsUrl": "http://maps.google.com/maps?q=AUBURN%20PHARMACY%20INC%2C1011%20BAPTISTE%20DRIVE%2C+PAOLA%2C+KS+66071",
        "lat": 38.57659,
        "lng": -94.86831,
        "name": "AUBURN PHARMACY INC",
        "postal": 66071,
        "source": "DEA",
        "source_date": "Dec2018",
        "state": "KS"
    },
    {
        "address": "2150 W 18TH STREET, SUITE 300 RM B, HOUSTON, TX 77008",
        "googleMapsUrl": "http://maps.google.com/maps?q=AVENUE%20%20HEALTH%20AND%20WELLNESS%2C2150%20W%2018TH%20STREET%2C+HOUSTON%2C+TX+77008",
        "lat": 29.801592,
        "lng": -95.43736,
        "name": "AVENUE 360 HEALTH AND WELLNESS",
        "postal": 77008,
        "source": "DEA",
        "source_date": "Dec2018",
        "state": "TX"
    },
    {
        "address": "826 N 8TH STREET, ESTHERVILLE, IA 51334",
        "googleMapsUrl": "http://maps.google.com/maps?q=AVERA%20HOLY%20FAMILY%20HEALTH%2C826%20N%208TH%20STREET%2C+ESTHERVILLE%2C+IA+51334",
        "lat": 43.410778,
        "lng": -94.83382399999999,
        "name": "AVERA HOLY FAMILY HEALTH",
        "postal": 51334,
        "source": "DEA",
        "source_date": "Dec2018",
        "state": "IA"
    },
    {
        "address": "716 MADISON AVENUE, COVINGTON, KY 41011",
        "googleMapsUrl": "http://maps.google.com/maps?q=B%20S%20D%20INC%2C716%20MADISON%20AVENUE%2C+COVINGTON%2C+KY+41011",
        "lat": 39.08316,
        "lng": -84.51004,
        "name": "B S D INC",
        "postal": 41011,
        "source": "DEA",
        "source_date": "Dec2018",
        "state": "KY"
    },
    {
        "address": "9201 W THOMAS ROAD, PHOENIX, AZ 85037",
        "googleMapsUrl": "http://maps.google.com/maps?q=BANNER%20FAMILY%20PHARMACY%20%20ESTRELLA%2C9201%20W%20THOMAS%20ROAD%2C+PHOENIX%2C+AZ+85037",
        "lat": 33.47967,
        "lng": -112.257576,
        "name": "BANNER FAMILY PHARMACY - ESTRELLA",
        "postal": 85037,
        "source": "DEA",
        "source_date": "Dec2018",
        "state": "AZ"
    },
    {
        "address": "1900 N HIGLEY RD, GILBERT, AZ 85234",
        "googleMapsUrl": "http://maps.google.com/maps?q=BANNER%20FAMILY%20PHARMACY%20%20GATEWAY%2C1900%20N%20HIGLEY%20RD%2C+GILBERT%2C+AZ+85234",
        "lat": 33.376290999999995,
        "lng": -111.72370500000001,
        "name": "BANNER FAMILY PHARMACY - GATEWAY",
        "postal": 85234,
        "source": "DEA",
        "source_date": "Dec2018",
        "state": "AZ"
    },
    {
        "address": "2946 E BANNER GATEWAY DRIVE, GILBERT, AZ 85234",
        "googleMapsUrl": "http://maps.google.com/maps?q=BANNER%20FAMILY%20PHARMACY%20%20MD%20ANDERSON%2C2946%20E%20BANNER%20GATEWAY%20DRIVE%2C+GILBERT%2C+AZ+85234",
        "lat": 33.384997999999996,
        "lng": -111.725725,
        "name": "BANNER FAMILY PHARMACY - MD ANDERSON",
        "postal": 85234,
        "source": "DEA",
        "source_date": "Dec2018",
        "state": "AZ"
    },
    {
        "address": "1501 N CAMPBELL AVE, TUCSON, AZ 85724",
        "googleMapsUrl": "http://maps.google.com/maps?q=BANNER%20FAMILY%20PHARMACY%20%20UNIVERSITY%20MED%20CTR%20TUCSON%2C1501%20N%20CAMPBELL%20AVE%2C+TUCSON%2C+AZ+85724",
        "lat": 32.240604,
        "lng": -110.94398999999999,
        "name": "BANNER FAMILY PHARMACY - UNIVERSITY MED CTR TUCSON",
        "postal": 85724,
        "source": "DEA",
        "source_date": "Dec2018",
        "state": "AZ"
    },
    {
        "address": "793 EASTERN BY-PASS, STE G-1, RICHMOND, KY 40475",
        "googleMapsUrl": "http://maps.google.com/maps?q=BAPTIST%20HEALTH%20RICHMOND%20PROFESSIONAL%20PHARMACY%2C793%20EASTERN%20BY-PASS%2C+RICHMOND%2C+KY+40475",
        "lat": 37.7308282,
        "lng": -84.2924567,
        "name": "BAPTIST HEALTH RICHMOND PROFESSIONAL PHARMACY",
        "postal": 40475,
        "source": "DEA",
        "source_date": "Dec2018",
        "state": "KY"
    },
    {
        "address": "639 W MAIN ST, BARNESVILLE, OH 43713",
        "googleMapsUrl": "http://maps.google.com/maps?q=BARNESVILLE%20HOSPITAL%20ASSN%20INC%2C639%20W%20MAIN%20ST%2C+BARNESVILLE%2C+OH+43713",
        "lat": 39.99174,
        "lng": -81.18784000000001,
        "name": "BARNESVILLE HOSPITAL ASSN INC",
        "postal": 43713,
        "source": "DEA",
        "source_date": "Dec2018",
        "state": "OH"
    },
    {
        "address": "243 E BROAD STREET, WESTFIELD, NJ 07090",
        "googleMapsUrl": "http://maps.google.com/maps?q=BARONS%20FAMILY%20PHARMACY%20INC%2C243%20E%20BROAD%20STREET%2C+WESTFIELD%2C+NJ+07090",
        "lat": 40.65251,
        "lng": -74.34749599999999,
        "name": "BARON'S FAMILY PHARMACY INC",
        "postal": 7090,
        "source": "DEA",
        "source_date": "Dec2018",
        "state": "NJ"
    },
    {
        "address": "105 N BASCOM AVE #101, SUITE #101, SAN JOSE, CA 95128",
        "googleMapsUrl": "http://maps.google.com/maps?q=BASCOM%20PHARMAACY%20LLC%2C105%20N%20BASCOM%20AVE%20#101%2C+SAN%20JOSE%2C+CA+95128",
        "lat": 37.325847100000004,
        "lng": -121.9327436,
        "name": "BASCOM PHARMAACY LLC",
        "postal": 95128,
        "source": "DEA",
        "source_date": "Dec2018",
        "state": "CA"
    },
    {
        "address": "12124 WEST LAKE SHORE DRIVE, BRIMLEY, MI 49715",
        "googleMapsUrl": "http://maps.google.com/maps?q=BAY%20MILLS%20PHARMACY%2C12124%20WEST%20LAKE%20SHORE%20DRIVE%2C+BRIMLEY%2C+MI+49715",
        "lat": 46.451035,
        "lng": -84.601456,
        "name": "BAY MILLS PHARMACY",
        "postal": 49715,
        "source": "DEA",
        "source_date": "Dec2018",
        "state": "MI"
    },
    {
        "address": "2 BAYSHORE PLAZA, HWY 36, ATLANTIC HIGHLANDS, NJ 07716",
        "googleMapsUrl": "http://maps.google.com/maps?q=BAYSHORE%20PHARMACY%2C2%20BAYSHORE%20PLAZA%2C+ATLANTIC%20HIGHLANDS%2C+NJ+07716",
        "lat": 40.4091349,
        "lng": -74.0418662,
        "name": "BAYSHORE PHARMACY",
        "postal": 7716,
        "source": "DEA",
        "source_date": "Dec2018",
        "state": "NJ"
    },
    {
        "address": "759 CHESTNUT ST, SPRINGFIELD, MA 01199",
        "googleMapsUrl": "http://maps.google.com/maps?q=BAYSTATE%20MEDICAL%20CENTER%20INC%2C759%20CHESTNUT%20ST%2C+SPRINGFIELD%2C+MA+01199",
        "lat": 42.121864,
        "lng": -72.60290400000001,
        "name": "BAYSTATE MEDICAL CENTER INC",
        "postal": 1199,
        "source": "DEA",
        "source_date": "Dec2018",
        "state": "MA"
    },
    {
        "address": "325 WEST LOGAN HIGHWAY, P. O. BOX 328, GARDEN CITY, UT 84028",
        "googleMapsUrl": "http://maps.google.com/maps?q=BEAR%20LAKE%20COMMUNITY%20HEALTH%20CENTER%20PHARMACY%2C325%20WEST%20LOGAN%20HIGHWAY%2C+GARDEN%20CITY%2C+UT+84028",
        "lat": 41.9471032,
        "lng": -111.40103329999998,
        "name": "BEAR LAKE COMMUNITY HEALTH CENTER PHARMACY",
        "postal": 84028,
        "source": "DEA",
        "source_date": "Dec2018",
        "state": "UT"
    },
    {
        "address": "3140 VILLAGE VISTA DR, SUITE 100, ERIE, CO 80516",
        "googleMapsUrl": "http://maps.google.com/maps?q=BEATTIES%20HEALTH%20MART%20PHARMACY%2C3140%20VILLAGE%20VISTA%20DR%2C+ERIE%2C+CO+80516",
        "lat": 40.001063,
        "lng": -105.020044,
        "name": "BEATTIE'S HEALTH MART PHARMACY",
        "postal": 80516,
        "source": "DEA",
        "source_date": "Dec2018",
        "state": "CO"
    },
    {
        "address": "98 N MAIN ST, PO BOX 1438, BEAVER, UT 84713",
        "googleMapsUrl": "http://maps.google.com/maps?q=BEAVER%20DRUG%2C98%20N%20MAIN%20ST%2C+BEAVER%2C+UT+84713",
        "lat": 38.27275,
        "lng": -112.64123500000001,
        "name": "BEAVER DRUG",
        "postal": 84713,
        "source": "DEA",
        "source_date": "Dec2018",
        "state": "UT"
    },
    {
        "address": "95 SPRINGBROOK AVENUE, SUITE 101, CLAYTON, NC 27520",
        "googleMapsUrl": "http://maps.google.com/maps?q=BEDDINGFIELD%20DRUGS%20LLC%2C95%20SPRINGBROOK%20AVENUE%2C+CLAYTON%2C+NC+27520",
        "lat": 35.6285305,
        "lng": -78.5051027,
        "name": "BEDDINGFIELD DRUGS LLC",
        "postal": 27520,
        "source": "DEA",
        "source_date": "Dec2018",
        "state": "NC"
    },
    {
        "address": "419 MAIN ST, PO BOX 66, BEDFORD, IA 50833",
        "googleMapsUrl": "http://maps.google.com/maps?q=BEDFORD%20DRUG%2C419%20MAIN%20ST%2C+BEDFORD%2C+IA+50833",
        "lat": 40.66702,
        "lng": -94.71925,
        "name": "BEDFORD DRUG",
        "postal": 50833,
        "source": "DEA",
        "source_date": "Dec2018",
        "state": "IA"
    },
    {
        "address": "7473 SECOR ROAD, UNIT C, LAMBERTVILLE, MI 48144",
        "googleMapsUrl": "http://maps.google.com/maps?q=BEDFORD%20WELLNESS%20PHARMACY%2C7473%20SECOR%20ROAD%2C+LAMBERTVILLE%2C+MI+48144",
        "lat": 41.751305,
        "lng": -83.62576,
        "name": "BEDFORD WELLNESS PHARMACY",
        "postal": 48144,
        "source": "DEA",
        "source_date": "Dec2018",
        "state": "MI"
    },
    {
        "address": "2021 N BROADWAY, KNOXVILLE, TN 37917",
        "googleMapsUrl": "http://maps.google.com/maps?q=BELEW%20DRUG%2C2021%20N%20BROADWAY%2C+KNOXVILLE%2C+TN+37917",
        "lat": 35.990140000000004,
        "lng": -83.92012,
        "name": "BELEW DRUG",
        "postal": 37917,
        "source": "DEA",
        "source_date": "Dec2018",
        "state": "TN"
    },
    {
        "address": "8622 ASHEVILLE HIGHWAY, KNOXVILLE, TN 37924",
        "googleMapsUrl": "http://maps.google.com/maps?q=BELEW%20DRUGS%20ASHEVILLE%20HIGHWAY%20LLC%2C8622%20ASHEVILLE%20HIGHWAY%2C+KNOXVILLE%2C+TN+37924",
        "lat": 36.025459999999995,
        "lng": -83.73642,
        "name": "BELEW DRUGS ASHEVILLE HIGHWAY LLC",
        "postal": 37924,
        "source": "DEA",
        "source_date": "Dec2018",
        "state": "TN"
    },
    {
        "address": "5908 WASHINGTON PIKE SUITE 102, KNOXVILLE, TN 37918",
        "googleMapsUrl": "http://maps.google.com/maps?q=BELEW%20DRUGS%20WASHINGTON%20PIKE%20INC%2C5908%20WASHINGTON%20PIKE%20SUITE%20102%2C+KNOXVILLE%2C+TN+37918",
        "lat": 36.05243,
        "lng": -83.87448,
        "name": "BELEW DRUGS WASHINGTON PIKE INC",
        "postal": 37918,
        "source": "DEA",
        "source_date": "Dec2018",
        "state": "TN"
    },
    {
        "address": "120 NORTH BRIDGE STREET, PO BOX 272, BELLAIRE, MI 49615",
        "googleMapsUrl": "http://maps.google.com/maps?q=BELLAIRE%20PHARMACY%20INC%2C120%20%20NORTH%20BRIDGE%20STREET%2C+BELLAIRE%2C+MI+49615",
        "lat": 44.97547,
        "lng": -85.20999,
        "name": "BELLAIRE PHARMACY, INC",
        "postal": 49615,
        "source": "DEA",
        "source_date": "Dec2018",
        "state": "MI"
    },
    {
        "address": "338 WASHINGTON AVE, BELLEVILLE, NJ 07109",
        "googleMapsUrl": "http://maps.google.com/maps?q=BELLEVILLE%20PHARMACY%2C338%20WASHINGTON%20AVE%2C+BELLEVILLE%2C+NJ+07109",
        "lat": 40.791176,
        "lng": -74.15124499999999,
        "name": "BELLEVILLE PHARMACY",
        "postal": 7109,
        "source": "DEA",
        "source_date": "Dec2018",
        "state": "NJ"
    },
    {
        "address": "135 SOUTH MAIN STREET, WOODSFIELD, OH 43793",
        "googleMapsUrl": "http://maps.google.com/maps?q=BELLWOOD%20DRUGS%2C135%20SOUTH%20MAIN%20STREET%2C+WOODSFIELD%2C+OH+43793",
        "lat": 39.76185,
        "lng": -81.11633,
        "name": "BELLWOOD DRUGS",
        "postal": 43793,
        "source": "DEA",
        "source_date": "Dec2018",
        "state": "OH"
    },
    {
        "address": "DBA MORRISTOWN PHCY, 66840 BELMONT-MORRISTOWN RD, BELMONT, OH 43718",
        "googleMapsUrl": "http://maps.google.com/maps?q=BELMONT%20CO%20HLTH%20SERVICES%2CDBA%20MORRISTOWN%20PHCY%2C+BELMONT%2C+OH+43718",
        "lat": 40.0643167,
        "lng": -81.0564553,
        "name": "BELMONT CO HLTH SERVICES",
        "postal": 43718,
        "source": "DEA",
        "source_date": "Dec2018",
        "state": "OH"
    },
    {
        "address": "1969 WEST HART RD, BELOIT, WI 53511",
        "googleMapsUrl": "http://maps.google.com/maps?q=BELOIT%20HEALTH%20SYSTEM%2C1969%20WEST%20HART%20RD%2C+BELOIT%2C+WI+53511",
        "lat": 42.54675,
        "lng": -89.00771999999999,
        "name": "BELOIT HEALTH SYSTEM",
        "postal": 53511,
        "source": "DEA",
        "source_date": "Dec2018",
        "state": "WI"
    },
    {
        "address": "500 15TH AVENUE SOUTH, SUITE #2, GREAT FALLS, MT 59405",
        "googleMapsUrl": "http://maps.google.com/maps?q=BENEFIS%20AMBULATORY%20PHARMACY%2C500%2015TH%20AVENUE%20SOUTH%2C+GREAT%20FALLS%2C+MT+59405",
        "lat": 47.499653,
        "lng": -111.28168500000001,
        "name": "BENEFIS AMBULATORY PHARMACY",
        "postal": 59405,
        "source": "DEA",
        "source_date": "Dec2018",
        "state": "MT"
    },
    {
        "address": "229 S. 7TH STREET, ST MARIES, ID 83861",
        "googleMapsUrl": "http://maps.google.com/maps?q=BENEWAH%20COMMUNITY%20HOSPITAL%2C229%20S.%207TH%20STREET%2C+ST%20MARIES%2C+ID+83861",
        "lat": 47.314938,
        "lng": -116.56671999999999,
        "name": "BENEWAH COMMUNITY HOSPITAL",
        "postal": 83861,
        "source": "DEA",
        "source_date": "Dec2018",
        "state": "ID"
    },
    {
        "address": "990 SOUTH 8TH AVE, POCATELLO, ID 83209",
        "googleMapsUrl": "http://maps.google.com/maps?q=BENGAL%20PHARMACY%2C990%20SOUTH%208TH%20AVE%2C+POCATELLO%2C+ID+83209",
        "lat": 42.861835,
        "lng": -112.43278000000001,
        "name": "BENGAL PHARMACY",
        "postal": 83209,
        "source": "DEA",
        "source_date": "Dec2018",
        "state": "ID"
    },
    {
        "address": "REMOTE PHARMACY, 551 HIGHLAND DR, ARCO, ID 83213",
        "googleMapsUrl": "http://maps.google.com/maps?q=BENGAL%20PHARMACY%20%20ARCO%2CREMOTE%20PHARMACY%2C+ARCO%2C+ID+83213",
        "lat": 43.639554,
        "lng": -113.295217,
        "name": "BENGAL PHARMACY - ARCO",
        "postal": 83213,
        "source": "DEA",
        "source_date": "Dec2018",
        "state": "ID"
    },
    {
        "address": "1 WEST MAIN, P.O.BOX 111, NEW HAMPTON, IA 50659",
        "googleMapsUrl": "http://maps.google.com/maps?q=BENNETT%20PHARMACY%2C1%20WEST%20MAIN%2C+NEW%20HAMPTON%2C+IA+50659",
        "lat": 43.0595016,
        "lng": -92.3155632,
        "name": "BENNETT PHARMACY",
        "postal": 50659,
        "source": "DEA",
        "source_date": "Dec2018",
        "state": "IA"
    },
    {
        "address": "1418 FRONT ST, BOX 549, FORT BENTON, MT 59442",
        "googleMapsUrl": "http://maps.google.com/maps?q=BENTON%20PHARMACY%2C1418%20FRONT%20ST%2C+FORT%20BENTON%2C+MT+59442",
        "lat": 47.816757,
        "lng": -110.66813,
        "name": "BENTON PHARMACY",
        "postal": 59442,
        "source": "DEA",
        "source_date": "Dec2018",
        "state": "MT"
    },
    {
        "address": "3500 EAST BROADWAY, LONG BEACH, CA 90803",
        "googleMapsUrl": "http://maps.google.com/maps?q=BENZER%20CA%20LLC%2C3500%20EAST%20BROADWAY%2C+LONG%20BEACH%2C+CA+90803",
        "lat": 33.764435,
        "lng": -118.15127,
        "name": "BENZER CA1 LLC",
        "postal": 90803,
        "source": "DEA",
        "source_date": "Dec2018",
        "state": "CA"
    },
    {
        "address": "32733 EILAND BLVD SUITE 103, WESLEY CHAPEL, FL 33545",
        "googleMapsUrl": "http://maps.google.com/maps?q=BENZER%20FL%20%20LLC%2C32733%20EILAND%20BLVD%20SUITE%20103%2C+WESLEY%20CHAPEL%2C+FL+33545",
        "lat": 28.220227,
        "lng": -82.246984,
        "name": "BENZER FL 12 LLC",
        "postal": 33545,
        "source": "DEA",
        "source_date": "Dec2018",
        "state": "FL"
    },
    {
        "address": "5908 BRECKENRIDGE PARKWAY, TAMPA, FL 33610",
        "googleMapsUrl": "http://maps.google.com/maps?q=BENZER%20FL%20%20LLC%2C5908%20BRECKENRIDGE%20PARKWAY%2C+TAMPA%2C+FL+33610",
        "lat": 28.007247999999997,
        "lng": -82.35795999999999,
        "name": "BENZER FL 13 LLC",
        "postal": 33610,
        "source": "DEA",
        "source_date": "Dec2018",
        "state": "FL"
    },
    {
        "address": "700 1ST ST S, SUITE 1, WINTER HAVEN, FL 33880",
        "googleMapsUrl": "http://maps.google.com/maps?q=BENZER%20FL%20%20LLC%2C700%201ST%20ST%20S%2C%20SUITE%201%2C+WINTER%20HAVEN%2C+FL+33880",
        "lat": 28.018063,
        "lng": -81.72679000000001,
        "name": "BENZER FL 14 LLC",
        "postal": 33880,
        "source": "DEA",
        "source_date": "Dec2018",
        "state": "FL"
    },
    {
        "address": "11509 E MARTIN LUTHER KING JR BLVD, MANGO, FL 33550",
        "googleMapsUrl": "http://maps.google.com/maps?q=BENZER%20FL%20%20LLC%2C11509%20E%20MARTIN%20LUTHER%20KING%20JR%20BLVD%2C+MANGO%2C+FL+33550",
        "lat": 27.980859999999996,
        "lng": -82.306129,
        "name": "BENZER FL 15 LLC",
        "postal": 33550,
        "source": "DEA",
        "source_date": "Dec2018",
        "state": "FL"
    },
    {
        "address": "6056 VAN DYKE RD, LUTZ, FL 33558",
        "googleMapsUrl": "http://maps.google.com/maps?q=BENZER%20FL%20LLC%2C6056%20VAN%20DYKE%20RD%2C+LUTZ%2C+FL+33558",
        "lat": 28.128048,
        "lng": -82.54140500000001,
        "name": "BENZER FL10 LLC",
        "postal": 33558,
        "source": "DEA",
        "source_date": "Dec2018",
        "state": "FL"
    },
    {
        "address": "2653 BRUCE B DOWNS BLVD SUITE 115, WESLEY CHAPEL, FL 33544",
        "googleMapsUrl": "http://maps.google.com/maps?q=BENZER%20FL%20LLC%2C2653%20BRUCE%20B%20DOWNS%20BLVD%20SUITE%20115%2C+WESLEY%20CHAPEL%2C+FL+33544",
        "lat": 28.194876,
        "lng": -82.354253,
        "name": "BENZER FL11 LLC",
        "postal": 33544,
        "source": "DEA",
        "source_date": "Dec2018",
        "state": "FL"
    },
    {
        "address": "105 S MOON AVE, BRANDON, FL 33511",
        "googleMapsUrl": "http://maps.google.com/maps?q=BENZER%20FL%20LLC%2C105%20S%20MOON%20AVE%2C+BRANDON%2C+FL+33511",
        "lat": 27.937571999999996,
        "lng": -82.28849,
        "name": "BENZER FL3 LLC",
        "postal": 33511,
        "source": "DEA",
        "source_date": "Dec2018",
        "state": "FL"
    },
    {
        "address": "2722 W. OLD HIGHWAY 441, MOUNT DORA, FL 32757",
        "googleMapsUrl": "http://maps.google.com/maps?q=BENZER%20FL%20LLC%2C2722%20W.%20OLD%20HIGHWAY%20441%2C+MOUNT%20DORA%2C+FL+32757",
        "lat": 28.807638,
        "lng": -81.672066,
        "name": "BENZER FL4 LLC",
        "postal": 32757,
        "source": "DEA",
        "source_date": "Dec2018",
        "state": "FL"
    },
    {
        "address": "500 W. GRANADA BLVD SUITE 4, ORMOND BEACH, FL 32174",
        "googleMapsUrl": "http://maps.google.com/maps?q=BENZER%20FL%20LLC%2C500%20W.%20GRANADA%20BLVD%20SUITE%204%2C+ORMOND%20BEACH%2C+FL+32174",
        "lat": 29.279863,
        "lng": -81.070656,
        "name": "BENZER FL5 LLC",
        "postal": 32174,
        "source": "DEA",
        "source_date": "Dec2018",
        "state": "FL"
    },
    {
        "address": "6132 MERRILL ROAD SUITE 12, JACKSONVILLE, FL 32277",
        "googleMapsUrl": "http://maps.google.com/maps?q=BENZER%20FL%20LLC%2C6132%20MERRILL%20ROAD%20SUITE%2012%2C+JACKSONVILLE%2C+FL+32277",
        "lat": 30.35176,
        "lng": -81.59448,
        "name": "BENZER FL6 LLC",
        "postal": 32277,
        "source": "DEA",
        "source_date": "Dec2018",
        "state": "FL"
    },
    {
        "address": "3535 US HWY 19, NEW PORT RICHEY, FL 34652",
        "googleMapsUrl": "http://maps.google.com/maps?q=BENZER%20FL%20LLC%2C3535%20US%20HWY%2019%2C+NEW%20PORT%20RICHEY%2C+FL+34652",
        "lat": 28.210303999999997,
        "lng": -82.73954,
        "name": "BENZER FL7 LLC",
        "postal": 34652,
        "source": "DEA",
        "source_date": "Dec2018",
        "state": "FL"
    },
    {
        "address": "6280 66TH ST N, PINELLAS PARK, FL 33781",
        "googleMapsUrl": "http://maps.google.com/maps?q=BENZER%20FL%20LLC%2C6280%2066TH%20ST%20N%2C+PINELLAS%20PARK%2C+FL+33781",
        "lat": 27.828983,
        "lng": -82.72848499999999,
        "name": "BENZER FL8 LLC",
        "postal": 33781,
        "source": "DEA",
        "source_date": "Dec2018",
        "state": "FL"
    },
    {
        "address": "14306 NORTH DALE MABRY HWY #D, TAMPA, FL 33618",
        "googleMapsUrl": "http://maps.google.com/maps?q=BENZER%20FL%20LLC%2C14306%20NORTH%20DALE%20MABRY%20HWY%20#D%2C+TAMPA%2C+FL+33618",
        "lat": 28.076629999999998,
        "lng": -82.50675,
        "name": "BENZER FL9 LLC",
        "postal": 33618,
        "source": "DEA",
        "source_date": "Dec2018",
        "state": "FL"
    },
    {
        "address": "101 NORTH WALNUT STREET, COLFAX, IA 50054",
        "googleMapsUrl": "http://maps.google.com/maps?q=BENZER%20IA%20%20LLC%2C101%20NORTH%20WALNUT%20STREET%2C+COLFAX%2C+IA+50054",
        "lat": 41.677776,
        "lng": -93.24543,
        "name": "BENZER IA 1 LLC",
        "postal": 50054,
        "source": "DEA",
        "source_date": "Dec2018",
        "state": "IA"
    },
    {
        "address": "2525 CANAL STREET, NEW ORLEANS, LA 70119",
        "googleMapsUrl": "http://maps.google.com/maps?q=BENZER%20LA%20LLC%2C2525%20CANAL%20STREET%2C+NEW%20ORLEANS%2C+LA+70119",
        "lat": 29.964146000000003,
        "lng": -90.08510600000001,
        "name": "BENZER LA1 LLC",
        "postal": 70119,
        "source": "DEA",
        "source_date": "Dec2018",
        "state": "LA"
    },
    {
        "address": "2951 E TEXAS STREET SUITE E, BOSSIER CITY, LA 71111",
        "googleMapsUrl": "http://maps.google.com/maps?q=BENZER%20PHARMACY%2C2951%20E%20TEXAS%20STREET%20SUITE%20E%2C+BOSSIER%20CITY%2C+LA+71111",
        "lat": 32.528736,
        "lng": -93.704254,
        "name": "BENZER PHARMACY",
        "postal": 71111,
        "source": "DEA",
        "source_date": "Dec2018",
        "state": "LA"
    },
    {
        "address": "G-3333 BEECHER ROAD, SUITE B, FLINT, MI 48532",
        "googleMapsUrl": "http://maps.google.com/maps?q=BENZER%20PHARMACY%2CG-3333%20BEECHER%20ROAD%2C+FLINT%2C+MI+48532",
        "lat": 43.0157605,
        "lng": -83.7438387,
        "name": "BENZER PHARMACY",
        "postal": 48532,
        "source": "DEA",
        "source_date": "Dec2018",
        "state": "MI"
    },
    {
        "address": "1250 NW 7TH STREET UNIT 101-102, MIAMI, FL 33125",
        "googleMapsUrl": "http://maps.google.com/maps?q=BENZER%20PHARMACY%20FL%20LLC%2C1250%20NW%207TH%20STREET%20UNIT%20101-102%2C+MIAMI%2C+FL+33125",
        "lat": 25.779841,
        "lng": -80.215939,
        "name": "BENZER PHARMACY FL1 LLC",
        "postal": 33125,
        "source": "DEA",
        "source_date": "Dec2018",
        "state": "FL"
    },
    {
        "address": "60 NE 1ST ST, POMPANO BEACH, FL 33060",
        "googleMapsUrl": "http://maps.google.com/maps?q=BENZER%20PHARMACY%20FL%20LLC%2C60%20NE%201ST%20ST%2C+POMPANO%20BEACH%2C+FL+33060",
        "lat": 26.232409999999998,
        "lng": -80.124725,
        "name": "BENZER PHARMACY FL2 LLC",
        "postal": 33060,
        "source": "DEA",
        "source_date": "Dec2018",
        "state": "FL"
    },
    {
        "address": "600 NORTH PICKAWAY STREET, ATTN PHARMACY, CIRCLEVILLE, OH 43113",
        "googleMapsUrl": "http://maps.google.com/maps?q=BERGER%20HOSPITAL%2C600%20NORTH%20PICKAWAY%20STREET%2C+CIRCLEVILLE%2C+OH+43113",
        "lat": 39.60921,
        "lng": -82.93825,
        "name": "BERGER HOSPITAL",
        "postal": 43113,
        "source": "DEA",
        "source_date": "Dec2018",
        "state": "OH"
    },
    {
        "address": "28577 SCHOENHERR ROAD, WARREN, MI 48088",
        "googleMapsUrl": "http://maps.google.com/maps?q=BERKLEY%20PHARMACY%2C28577%20SCHOENHERR%20ROAD%2C+WARREN%2C+MI+48088",
        "lat": 42.504436,
        "lng": -82.9873,
        "name": "BERKLEY PHARMACY",
        "postal": 48088,
        "source": "DEA",
        "source_date": "Dec2018",
        "state": "MI"
    },
    {
        "address": "329 NC HWY 801 NORTH, PLAZA I, BERMUDA RUN, NC 27006",
        "googleMapsUrl": "http://maps.google.com/maps?q=BERMUDA%20RUN%20PHARMACY%2C329%20NC%20HWY%20801%20NORTH%2C+BERMUDA%20RUN%2C+NC+27006",
        "lat": 36.010689,
        "lng": -80.446904,
        "name": "BERMUDA RUN PHARMACY",
        "postal": 27006,
        "source": "DEA",
        "source_date": "Dec2018",
        "state": "NC"
    },
    {
        "address": "19671 NE 23RD, HARRAH, OK 73045",
        "googleMapsUrl": "http://maps.google.com/maps?q=BESTYET%20HEALTHMART%20PHARMACY%2C19671%20NE%2023RD%2C+HARRAH%2C+OK+73045",
        "lat": 35.493072999999995,
        "lng": -97.18247,
        "name": "BESTYET HEALTHMART PHARMACY",
        "postal": 73045,
        "source": "DEA",
        "source_date": "Dec2018",
        "state": "OK"
    },
    {
        "address": "275 SANDWICH STREET, PLYMOUTH, MA 02360",
        "googleMapsUrl": "http://maps.google.com/maps?q=BETH%20ISRAEL%20DEACONESS%20HOSPITALPLYMOUTH%20INC%2C275%20SANDWICH%20STREET%2C+PLYMOUTH%2C+MA+02360",
        "lat": 41.944396999999995,
        "lng": -70.645004,
        "name": "BETH ISRAEL DEACONESS HOSPITAL-PLYMOUTH, INC.",
        "postal": 2360,
        "source": "DEA",
        "source_date": "Dec2018",
        "state": "MA"
    },
    {
        "address": "4860 RUCKER RD #1, MONETA, VA 24121",
        "googleMapsUrl": "http://maps.google.com/maps?q=BETTER%20CARE%20PHARMACY%20LLC%2C4860%20RUCKER%20RD%20#1%2C+MONETA%2C+VA+24121",
        "lat": 37.187355,
        "lng": -79.61484,
        "name": "BETTER CARE PHARMACY LLC",
        "postal": 24121,
        "source": "DEA",
        "source_date": "Dec2018",
        "state": "VA"
    },
    {
        "address": "147 WEST MAIN STREET, BEULAH, ND 58523",
        "googleMapsUrl": "http://maps.google.com/maps?q=BEULAH%20DRUG%2C147%20WEST%20MAIN%20STREET%2C+BEULAH%2C+ND+58523",
        "lat": 47.263494,
        "lng": -101.778706,
        "name": "BEULAH DRUG",
        "postal": 58523,
        "source": "DEA",
        "source_date": "Dec2018",
        "state": "ND"
    },
    {
        "address": "C/O PHARMACY DEPT, 85 HERRICK ST, BEVERLY, MA 01915",
        "googleMapsUrl": "http://maps.google.com/maps?q=BEVERLY%20HOSPITAL%2CC/O%20PHARMACY%20DEPT%2C+BEVERLY%2C+MA+01915",
        "lat": 42.5765964,
        "lng": -70.8919377,
        "name": "BEVERLY HOSPITAL",
        "postal": 1915,
        "source": "DEA",
        "source_date": "Dec2018",
        "state": "MA"
    },
    {
        "address": "898 EAST MAIN ST, GREENWOOD, IN 46143",
        "googleMapsUrl": "http://maps.google.com/maps?q=BHC%20VALLE%20VISTA%20HOSPITAL%20INC%2C898%20EAST%20MAIN%20ST%2C+GREENWOOD%2C+IN+46143",
        "lat": 39.61422,
        "lng": -86.08655999999999,
        "name": "BHC VALLE VISTA HOSPITAL, INC.",
        "postal": 46143,
        "source": "DEA",
        "source_date": "Dec2018",
        "state": "IN"
    },
    {
        "address": "915 1ST AVE S, STE 110, GREAT FALLS, MT 59401",
        "googleMapsUrl": "http://maps.google.com/maps?q=BIG%20SKY%20MANAGED%20CARE%2C915%201ST%20AVE%20S%2C+GREAT%20FALLS%2C+MT+59401",
        "lat": 47.5042,
        "lng": -111.291756,
        "name": "BIG SKY MANAGED CARE",
        "postal": 59401,
        "source": "DEA",
        "source_date": "Dec2018",
        "state": "MT"
    },
    {
        "address": "1801 E.MARCH LANE, SUITE:B280, STOCKTON, CA 95210",
        "googleMapsUrl": "http://maps.google.com/maps?q=BJRX%20PHARMACY%20INC%2C1801%20E.MARCH%20LANE%2C+STOCKTON%2C+CA+95210",
        "lat": 32.7134,
        "lng": -117.1231,
        "name": "BJRX PHARMACY INC.",
        "postal": 95210,
        "source": "DEA",
        "source_date": "Dec2018",
        "state": "CA"
    },
    {
        "address": "704 BLEECKER ST, UTICA, NY 13501",
        "googleMapsUrl": "http://maps.google.com/maps?q=BLACK%20DRUGS%20INC%2C704%20BLEECKER%20ST%2C+UTICA%2C+NY+13501",
        "lat": 43.098209999999995,
        "lng": -75.217575,
        "name": "BLACK DRUGS INC",
        "postal": 13501,
        "source": "DEA",
        "source_date": "Dec2018",
        "state": "NY"
    },
    {
        "address": "CENTER PHARMACY, 2700 DR. MARTIN LUTHER KING JR, INDIANAPOLIS, IN 46208",
        "googleMapsUrl": "http://maps.google.com/maps?q=BLACKBURN%20COMMUNITY%20HEALTH%2CCENTER%20PHARMACY%2C+INDIANAPOLIS%2C+IN+46208",
        "lat": 39.805562,
        "lng": -86.17165899999999,
        "name": "BLACKBURN COMMUNITY HEALTH",
        "postal": 46208,
        "source": "DEA",
        "source_date": "Dec2018",
        "state": "IN"
    },
    {
        "address": "316 PECAN ST, PO BOX 369, BLANCO, TX 78606",
        "googleMapsUrl": "http://maps.google.com/maps?q=BLANCO%20PHARMACY%20%20WELLNESS%2C316%20PECAN%20ST%2C+BLANCO%2C+TX+78606",
        "lat": 30.0969368,
        "lng": -98.4213912,
        "name": "BLANCO PHARMACY & WELLNESS",
        "postal": 78606,
        "source": "DEA",
        "source_date": "Dec2018",
        "state": "TX"
    },
    {
        "address": "20370 CENTRAL AVE W, BLOUNTSTOWN, FL 32424",
        "googleMapsUrl": "http://maps.google.com/maps?q=BLOUNTSTOWN%20DRUG%20INC%2C20370%20CENTRAL%20AVE%20W%2C+BLOUNTSTOWN%2C+FL+32424",
        "lat": 30.443665999999997,
        "lng": -85.05005799999999,
        "name": "BLOUNTSTOWN DRUG INC",
        "postal": 32424,
        "source": "DEA",
        "source_date": "Dec2018",
        "state": "FL"
    },
    {
        "address": "802 SOUTH 200 WEST, BLANDING, UT 84511",
        "googleMapsUrl": "http://maps.google.com/maps?q=BLUE%20MOUNTAIN%20PHARMACY%2C802%20SOUTH%20200%20WEST%2C+BLANDING%2C+UT+84511",
        "lat": 37.6134925,
        "lng": -109.48156909999999,
        "name": "BLUE MOUNTAIN PHARMACY",
        "postal": 84511,
        "source": "DEA",
        "source_date": "Dec2018",
        "state": "UT"
    },
    {
        "address": "6240 MICHIGAN AVE, DETROIT, MI 48210",
        "googleMapsUrl": "http://maps.google.com/maps?q=BLUE%20PHARMACY%2C6240%20MICHIGAN%20AVE%2C+DETROIT%2C+MI+48210",
        "lat": 42.331127,
        "lng": -83.11946999999999,
        "name": "BLUE PHARMACY",
        "postal": 48210,
        "source": "DEA",
        "source_date": "Dec2018",
        "state": "MI"
    },
    {
        "address": "9485 WEST COLFAX AVENUE, LAKEWOOD, CO 80215",
        "googleMapsUrl": "http://maps.google.com/maps?q=BLUE%20SPRUCE%20PHARMACY%2C9485%20WEST%20COLFAX%20AVENUE%2C+LAKEWOOD%2C+CO+80215",
        "lat": 39.740241999999995,
        "lng": -105.10346000000001,
        "name": "BLUE SPRUCE PHARMACY",
        "postal": 80215,
        "source": "DEA",
        "source_date": "Dec2018",
        "state": "CO"
    },
    {
        "address": "150 WAR ADMIRAL, STE 1, DANVILLE, KY 40422",
        "googleMapsUrl": "http://maps.google.com/maps?q=BLUEGRASS%20DRUG%20STORE%2C150%20WAR%20ADMIRAL%2C+DANVILLE%2C+KY+40422",
        "lat": 37.66083,
        "lng": -84.79469,
        "name": "BLUEGRASS DRUG STORE",
        "postal": 40422,
        "source": "DEA",
        "source_date": "Dec2018",
        "state": "KY"
    },
    {
        "address": "1128 N. MAIN ST., MADISONVILLE, KY 42431",
        "googleMapsUrl": "http://maps.google.com/maps?q=BLUEGRASS%20PHARMACIES%2C1128%20N.%20MAIN%20ST.%2C+MADISONVILLE%2C+KY+42431",
        "lat": 37.34544,
        "lng": -87.49814,
        "name": "BLUEGRASS PHARMACIES",
        "postal": 42431,
        "source": "DEA",
        "source_date": "Dec2018",
        "state": "KY"
    },
    {
        "address": "194 N DIVISION STREET, HESPERIA, MI 49421",
        "googleMapsUrl": "http://maps.google.com/maps?q=BOBS%20DRUGS%20LLC%2C194%20N%20DIVISION%20STREET%2C+HESPERIA%2C+MI+49421",
        "lat": 43.57159,
        "lng": -86.03961,
        "name": "BOB'S DRUGS LLC",
        "postal": 49421,
        "source": "DEA",
        "source_date": "Dec2018",
        "state": "MI"
    },
    {
        "address": "6900 FOREST AVENUE, SUITE 100, RICHMOND, VA 23230",
        "googleMapsUrl": "http://maps.google.com/maps?q=BON%20SECOURS%20GOOD%20HEALTH%20PHARMACY%20AT%20REYNOLDS%2C6900%20FOREST%20AVENUE%2C+RICHMOND%2C+VA+23230",
        "lat": 37.604539200000005,
        "lng": -77.521771,
        "name": "BON SECOURS GOOD HEALTH PHARMACY AT REYNOLDS",
        "postal": 23230,
        "source": "DEA",
        "source_date": "Dec2018",
        "state": "VA"
    },
    {
        "address": "8210 MAIN STREET, HARRISVILLE, NY 13648",
        "googleMapsUrl": "http://maps.google.com/maps?q=BONAPARTE%20PHARMACY%20LLC%2C8210%20MAIN%20STREET%2C+HARRISVILLE%2C+NY+13648",
        "lat": 44.148804,
        "lng": -75.31645,
        "name": "BONAPARTE PHARMACY LLC",
        "postal": 13648,
        "source": "DEA",
        "source_date": "Dec2018",
        "state": "NY"
    },
    {
        "address": "1000 OGDEN AVENUE, DOWNERS GROVE, IL 60515",
        "googleMapsUrl": "http://maps.google.com/maps?q=BOND%20DRUG%20COMPANY%20OF%20ILLINOIS%20LLC%2C1000%20OGDEN%20AVENUE%2C+DOWNERS%20GROVE%2C+IL+60515",
        "lat": 41.808884,
        "lng": -88.009865,
        "name": "BOND DRUG COMPANY OF ILLINOIS, L.L.C.",
        "postal": 60515,
        "source": "DEA",
        "source_date": "Dec2018",
        "state": "IL"
    },
    {
        "address": "111 S. HALSTED STREET, CHICAGO, IL 60661",
        "googleMapsUrl": "http://maps.google.com/maps?q=BOND%20DRUG%20COMPANY%20OF%20ILLINOIS%20LLC%2C111%20S.%20HALSTED%20STREET%2C+CHICAGO%2C+IL+60661",
        "lat": 41.88022,
        "lng": -87.64729,
        "name": "BOND DRUG COMPANY OF ILLINOIS, L.L.C.",
        "postal": 60661,
        "source": "DEA",
        "source_date": "Dec2018",
        "state": "IL"
    },
    {
        "address": "1311 N STATE ROUTE 48, DECATUR, IL 62526",
        "googleMapsUrl": "http://maps.google.com/maps?q=BOND%20DRUG%20COMPANY%20OF%20ILLINOIS%20LLC%2C1311%20N%20STATE%20ROUTE%2048%2C+DECATUR%2C+IL+62526",
        "lat": 39.877148,
        "lng": -88.93969,
        "name": "BOND DRUG COMPANY OF ILLINOIS, L.L.C.",
        "postal": 62526,
        "source": "DEA",
        "source_date": "Dec2018",
        "state": "IL"
    },
    {
        "address": "15 N BUFFALO GROVE RD, BUFFALO GROVE, IL 60089",
        "googleMapsUrl": "http://maps.google.com/maps?q=BOND%20DRUG%20COMPANY%20OF%20ILLINOIS%20LLC%2C15%20N%20BUFFALO%20GROVE%20RD%2C+BUFFALO%20GROVE%2C+IL+60089",
        "lat": 42.153971999999996,
        "lng": -87.961504,
        "name": "BOND DRUG COMPANY OF ILLINOIS, L.L.C.",
        "postal": 60089,
        "source": "DEA",
        "source_date": "Dec2018",
        "state": "IL"
    },
    {
        "address": "1525 N VETERANS PKWY, BLOOMINGTON, IL 61704",
        "googleMapsUrl": "http://maps.google.com/maps?q=BOND%20DRUG%20COMPANY%20OF%20ILLINOIS%20LLC%2C1525%20N%20VETERANS%20PKWY%2C+BLOOMINGTON%2C+IL+61704",
        "lat": 40.5021954,
        "lng": -88.95197370000001,
        "name": "BOND DRUG COMPANY OF ILLINOIS, L.L.C.",
        "postal": 61704,
        "source": "DEA",
        "source_date": "Dec2018",
        "state": "IL"
    },
    {
        "address": "1633 W. 95TH STREET, CHICAGO, IL 60643",
        "googleMapsUrl": "http://maps.google.com/maps?q=BOND%20DRUG%20COMPANY%20OF%20ILLINOIS%20LLC%2C1633%20W.%2095TH%20STREET%2C+CHICAGO%2C+IL+60643",
        "lat": 41.721176,
        "lng": -87.664215,
        "name": "BOND DRUG COMPANY OF ILLINOIS, L.L.C.",
        "postal": 60643,
        "source": "DEA",
        "source_date": "Dec2018",
        "state": "IL"
    },
    {
        "address": "1713 W. SPRINGFIELD, CHAMPAIGN, IL 61821",
        "googleMapsUrl": "http://maps.google.com/maps?q=BOND%20DRUG%20COMPANY%20OF%20ILLINOIS%20LLC%2C1713%20W.%20SPRINGFIELD%2C+CHAMPAIGN%2C+IL+61821",
        "lat": 40.112812,
        "lng": -88.27486999999999,
        "name": "BOND DRUG COMPANY OF ILLINOIS, L.L.C.",
        "postal": 61821,
        "source": "DEA",
        "source_date": "Dec2018",
        "state": "IL"
    },
    {
        "address": "1799 DOUGLAS RD, MONTGOMERY, IL 60538",
        "googleMapsUrl": "http://maps.google.com/maps?q=BOND%20DRUG%20COMPANY%20OF%20ILLINOIS%20LLC%2C1799%20DOUGLAS%20RD%2C+MONTGOMERY%2C+IL+60538",
        "lat": 41.7225196,
        "lng": -88.3202551,
        "name": "BOND DRUG COMPANY OF ILLINOIS, L.L.C.",
        "postal": 60538,
        "source": "DEA",
        "source_date": "Dec2018",
        "state": "IL"
    },
    {
        "address": "1801 INGALLS AVE, JOLIET, IL 60435",
        "googleMapsUrl": "http://maps.google.com/maps?q=BOND%20DRUG%20COMPANY%20OF%20ILLINOIS%20LLC%2C1801%20INGALLS%20AVE%2C+JOLIET%2C+IL+60435",
        "lat": 41.5444,
        "lng": -88.12569,
        "name": "BOND DRUG COMPANY OF ILLINOIS, L.L.C.",
        "postal": 60435,
        "source": "DEA",
        "source_date": "Dec2018",
        "state": "IL"
    },
    {
        "address": "1811 BELVIDERE RD, WAUKEGAN, IL 60085",
        "googleMapsUrl": "http://maps.google.com/maps?q=BOND%20DRUG%20COMPANY%20OF%20ILLINOIS%20LLC%2C1811%20BELVIDERE%20RD%2C+WAUKEGAN%2C+IL+60085",
        "lat": 42.350914,
        "lng": -87.85436999999999,
        "name": "BOND DRUG COMPANY OF ILLINOIS, L.L.C.",
        "postal": 60085,
        "source": "DEA",
        "source_date": "Dec2018",
        "state": "IL"
    },
    {
        "address": "1931 W CERMAK RD, CHICAGO, IL 60608",
        "googleMapsUrl": "http://maps.google.com/maps?q=BOND%20DRUG%20COMPANY%20OF%20ILLINOIS%20LLC%2C1931%20W%20CERMAK%20RD%2C+CHICAGO%2C+IL+60608",
        "lat": 41.852184,
        "lng": -87.6742,
        "name": "BOND DRUG COMPANY OF ILLINOIS, L.L.C.",
        "postal": 60608,
        "source": "DEA",
        "source_date": "Dec2018",
        "state": "IL"
    },
    {
        "address": "200 E ROOSEVELT, VILLA PARK, IL 60181",
        "googleMapsUrl": "http://maps.google.com/maps?q=BOND%20DRUG%20COMPANY%20OF%20ILLINOIS%20LLC%2C200%20E%20ROOSEVELT%2C+VILLA%20PARK%2C+IL+60181",
        "lat": 41.861445,
        "lng": -87.97259,
        "name": "BOND DRUG COMPANY OF ILLINOIS, L.L.C.",
        "postal": 60181,
        "source": "DEA",
        "source_date": "Dec2018",
        "state": "IL"
    },
    {
        "address": "2020 COURT STREET, PEKIN, IL 61554",
        "googleMapsUrl": "http://maps.google.com/maps?q=BOND%20DRUG%20COMPANY%20OF%20ILLINOIS%20LLC%2C2020%20COURT%20STREET%2C+PEKIN%2C+IL+61554",
        "lat": 40.559444,
        "lng": -89.6184,
        "name": "BOND DRUG COMPANY OF ILLINOIS, L.L.C.",
        "postal": 61554,
        "source": "DEA",
        "source_date": "Dec2018",
        "state": "IL"
    },
    {
        "address": "206 S. WALL ST., CARBONDALE, IL 62901",
        "googleMapsUrl": "http://maps.google.com/maps?q=BOND%20DRUG%20COMPANY%20OF%20ILLINOIS%20LLC%2C206%20S.%20WALL%20ST.%2C+CARBONDALE%2C+IL+62901",
        "lat": 37.72685,
        "lng": -89.208626,
        "name": "BOND DRUG COMPANY OF ILLINOIS, L.L.C.",
        "postal": 62901,
        "source": "DEA",
        "source_date": "Dec2018",
        "state": "IL"
    },
    {
        "address": "20950 GOVERNORS HWY., OLYMPIA FIELDS, IL 60461",
        "googleMapsUrl": "http://maps.google.com/maps?q=BOND%20DRUG%20COMPANY%20OF%20ILLINOIS%20LLC%2C20950%20GOVERNORS%20HWY.%2C+OLYMPIA%20FIELDS%2C+IL+60461",
        "lat": 41.510222999999996,
        "lng": -87.71056999999999,
        "name": "BOND DRUG COMPANY OF ILLINOIS, L.L.C.",
        "postal": 60461,
        "source": "DEA",
        "source_date": "Dec2018",
        "state": "IL"
    },
    {
        "address": "2323 CHARLES STREET, ROCKFORD, IL 61104",
        "googleMapsUrl": "http://maps.google.com/maps?q=BOND%20DRUG%20COMPANY%20OF%20ILLINOIS%20LLC%2C2323%20CHARLES%20STREET%2C+ROCKFORD%2C+IL+61104",
        "lat": 42.260727,
        "lng": -89.05943,
        "name": "BOND DRUG COMPANY OF ILLINOIS, L.L.C.",
        "postal": 61104,
        "source": "DEA",
        "source_date": "Dec2018",
        "state": "IL"
    },
    {
        "address": "3201 N. BROADWAY ST., CHICAGO, IL 60657",
        "googleMapsUrl": "http://maps.google.com/maps?q=BOND%20DRUG%20COMPANY%20OF%20ILLINOIS%20LLC%2C3201%20N.%20BROADWAY%20ST.%2C+CHICAGO%2C+IL+60657",
        "lat": 41.940075,
        "lng": -87.64439,
        "name": "BOND DRUG COMPANY OF ILLINOIS, L.L.C.",
        "postal": 60657,
        "source": "DEA",
        "source_date": "Dec2018",
        "state": "IL"
    },
    {
        "address": "3925 W ELM STREET, MCHENRY, IL 60050",
        "googleMapsUrl": "http://maps.google.com/maps?q=BOND%20DRUG%20COMPANY%20OF%20ILLINOIS%20LLC%2C3925%20W%20ELM%20STREET%2C+MCHENRY%2C+IL+60050",
        "lat": 42.3445,
        "lng": -88.27396999999999,
        "name": "BOND DRUG COMPANY OF ILLINOIS, L.L.C.",
        "postal": 60050,
        "source": "DEA",
        "source_date": "Dec2018",
        "state": "IL"
    },
    {
        "address": "401 BELTLINE, COLLINSVILLE, IL 62234",
        "googleMapsUrl": "http://maps.google.com/maps?q=BOND%20DRUG%20COMPANY%20OF%20ILLINOIS%20LLC%2C401%20BELTLINE%2C+COLLINSVILLE%2C+IL+62234",
        "lat": 38.691006,
        "lng": -89.97229,
        "name": "BOND DRUG COMPANY OF ILLINOIS, L.L.C.",
        "postal": 62234,
        "source": "DEA",
        "source_date": "Dec2018",
        "state": "IL"
    },
    {
        "address": "4343 N CENTRAL AVE, CHICAGO, IL 60634",
        "googleMapsUrl": "http://maps.google.com/maps?q=BOND%20DRUG%20COMPANY%20OF%20ILLINOIS%20LLC%2C4343%20N%20CENTRAL%20AVE%2C+CHICAGO%2C+IL+60634",
        "lat": 41.959765999999995,
        "lng": -87.767204,
        "name": "BOND DRUG COMPANY OF ILLINOIS, L.L.C.",
        "postal": 60634,
        "source": "DEA",
        "source_date": "Dec2018",
        "state": "IL"
    },
    {
        "address": "466 NELSON ROAD, NEW LENOX, IL 60451",
        "googleMapsUrl": "http://maps.google.com/maps?q=BOND%20DRUG%20COMPANY%20OF%20ILLINOIS%20LLC%2C466%20NELSON%20ROAD%2C+NEW%20LENOX%2C+IL+60451",
        "lat": 41.491640000000004,
        "lng": -87.9843,
        "name": "BOND DRUG COMPANY OF ILLINOIS, L.L.C.",
        "postal": 60451,
        "source": "DEA",
        "source_date": "Dec2018",
        "state": "IL"
    },
    {
        "address": "5600 W. FULLERTON, CHICAGO, IL 60639",
        "googleMapsUrl": "http://maps.google.com/maps?q=BOND%20DRUG%20COMPANY%20OF%20ILLINOIS%20LLC%2C5600%20W.%20FULLERTON%2C+CHICAGO%2C+IL+60639",
        "lat": 41.923992,
        "lng": -87.76605,
        "name": "BOND DRUG COMPANY OF ILLINOIS, L.L.C.",
        "postal": 60639,
        "source": "DEA",
        "source_date": "Dec2018",
        "state": "IL"
    },
    {
        "address": "5625 N. RIDGE AVE, CHICAGO, IL 60660",
        "googleMapsUrl": "http://maps.google.com/maps?q=BOND%20DRUG%20COMPANY%20OF%20ILLINOIS%20LLC%2C5625%20N.%20RIDGE%20AVE%2C+CHICAGO%2C+IL+60660",
        "lat": 41.98442,
        "lng": -87.66134,
        "name": "BOND DRUG COMPANY OF ILLINOIS, L.L.C.",
        "postal": 60660,
        "source": "DEA",
        "source_date": "Dec2018",
        "state": "IL"
    },
    {
        "address": "5890 NORTH BELT WEST, BELLEVILLE, IL 62226",
        "googleMapsUrl": "http://maps.google.com/maps?q=BOND%20DRUG%20COMPANY%20OF%20ILLINOIS%20LLC%2C5890%20NORTH%20BELT%20WEST%2C+BELLEVILLE%2C+IL+62226",
        "lat": 38.541706,
        "lng": -90.03674000000001,
        "name": "BOND DRUG COMPANY OF ILLINOIS, L.L.C.",
        "postal": 62226,
        "source": "DEA",
        "source_date": "Dec2018",
        "state": "IL"
    },
    {
        "address": "63 WEST 87TH ST, NAPERVILLE, IL 60565",
        "googleMapsUrl": "http://maps.google.com/maps?q=BOND%20DRUG%20COMPANY%20OF%20ILLINOIS%20LLC%2C63%20WEST%2087TH%20ST%2C+NAPERVILLE%2C+IL+60565",
        "lat": 41.728783,
        "lng": -88.12653,
        "name": "BOND DRUG COMPANY OF ILLINOIS, L.L.C.",
        "postal": 60565,
        "source": "DEA",
        "source_date": "Dec2018",
        "state": "IL"
    },
    {
        "address": "641 N CLARK ST, CHICAGO, IL 60654",
        "googleMapsUrl": "http://maps.google.com/maps?q=BOND%20DRUG%20COMPANY%20OF%20ILLINOIS%20LLC%2C641%20N%20CLARK%20ST%2C+CHICAGO%2C+IL+60654",
        "lat": 41.893634999999996,
        "lng": -87.63116,
        "name": "BOND DRUG COMPANY OF ILLINOIS, L.L.C.",
        "postal": 60654,
        "source": "DEA",
        "source_date": "Dec2018",
        "state": "IL"
    },
    {
        "address": "7350 BARRINGTON RD., HANOVER PARK, IL 60133",
        "googleMapsUrl": "http://maps.google.com/maps?q=BOND%20DRUG%20COMPANY%20OF%20ILLINOIS%20LLC%2C7350%20BARRINGTON%20RD.%2C+HANOVER%20PARK%2C+IL+60133",
        "lat": 42.005542999999996,
        "lng": -88.14482,
        "name": "BOND DRUG COMPANY OF ILLINOIS, L.L.C.",
        "postal": 60133,
        "source": "DEA",
        "source_date": "Dec2018",
        "state": "IL"
    },
    {
        "address": "780 WAUKEGAN RD, DEERFIELD, IL 60015",
        "googleMapsUrl": "http://maps.google.com/maps?q=BOND%20DRUG%20COMPANY%20OF%20ILLINOIS%20LLC%2C780%20WAUKEGAN%20RD%2C+DEERFIELD%2C+IL+60015",
        "lat": 42.166140000000006,
        "lng": -87.84543000000001,
        "name": "BOND DRUG COMPANY OF ILLINOIS, L.L.C.",
        "postal": 60015,
        "source": "DEA",
        "source_date": "Dec2018",
        "state": "IL"
    },
    {
        "address": "9000 N. GREENWOOD AVE, NILES, IL 60714",
        "googleMapsUrl": "http://maps.google.com/maps?q=BOND%20DRUG%20COMPANY%20OF%20ILLINOIS%20LLC%2C9000%20N.%20GREENWOOD%20AVE%2C+NILES%2C+IL+60714",
        "lat": 42.04368,
        "lng": -87.84053,
        "name": "BOND DRUG COMPANY OF ILLINOIS, L.L.C.",
        "postal": 60714,
        "source": "DEA",
        "source_date": "Dec2018",
        "state": "IL"
    },
    {
        "address": "118 MAIN, BOX 748, OAK CREEK, CO 80467",
        "googleMapsUrl": "http://maps.google.com/maps?q=BONFIGLIO%20DRUG%20INC%2C118%20MAIN%2C%20BOX%20748%2C+OAK%20CREEK%2C+CO+80467",
        "lat": 40.32,
        "lng": -106.96,
        "name": "BONFIGLIO DRUG INC",
        "postal": 80467,
        "source": "DEA",
        "source_date": "Dec2018",
        "state": "CO"
    },
    {
        "address": "AT DEERFIELD, 345 DEERFIELD ROAD, BOONE, NC 28607",
        "googleMapsUrl": "http://maps.google.com/maps?q=BOONE%20DRUG%20%20HEALTH%20CARE%2CAT%20DEERFIELD%2C+BOONE%2C+NC+28607",
        "lat": 36.199203000000004,
        "lng": -81.652939,
        "name": "BOONE DRUG & HEALTH CARE",
        "postal": 28607,
        "source": "DEA",
        "source_date": "Dec2018",
        "state": "NC"
    },
    {
        "address": "245 NEW MARKET CENTER, BOONE, NC 28607",
        "googleMapsUrl": "http://maps.google.com/maps?q=BOONE%20DRUG%20AT%20NEW%20MARKET%2C245%20NEW%20MARKET%20CENTER%2C+BOONE%2C+NC+28607",
        "lat": 36.21965,
        "lng": -81.66184,
        "name": "BOONE DRUG AT NEW MARKET",
        "postal": 28607,
        "source": "DEA",
        "source_date": "Dec2018",
        "state": "NC"
    },
    {
        "address": "903 CENTRAL AVENUE, PO BOX 233, HAWARDEN, IA 51023",
        "googleMapsUrl": "http://maps.google.com/maps?q=BOOTH%20PHARMACY%20INC%2C903%20CENTRAL%20AVENUE%2C+HAWARDEN%2C+IA+51023",
        "lat": 42.995670000000004,
        "lng": -96.48524499999999,
        "name": "BOOTH PHARMACY INC",
        "postal": 51023,
        "source": "DEA",
        "source_date": "Dec2018",
        "state": "IA"
    },
    {
        "address": "MENINO CAMPUS, 840 HARRISON AVE, BOSTON, MA 02118",
        "googleMapsUrl": "http://maps.google.com/maps?q=BOSTON%20MEDICAL%20CENTER%2CMENINO%20CAMPUS%2C+BOSTON%2C+MA+02118",
        "lat": 42.33481210000001,
        "lng": -71.0733775,
        "name": "BOSTON MEDICAL CENTER",
        "postal": 2118,
        "source": "DEA",
        "source_date": "Dec2018",
        "state": "MA"
    },
    {
        "address": "725 ALBANY STREET, PHARMACY, BOSTON, MA 02118",
        "googleMapsUrl": "http://maps.google.com/maps?q=BOSTON%20MEDICAL%20CENTER%20PHARMACY%20AT%20SHAPIRO%2C725%20ALBANY%20STREET%2C+BOSTON%2C+MA+02118",
        "lat": 42.335518,
        "lng": -71.0707,
        "name": "BOSTON MEDICAL CENTER PHARMACY AT SHAPIRO",
        "postal": 2118,
        "source": "DEA",
        "source_date": "Dec2018",
        "state": "MA"
    },
    {
        "address": "13081 CENTRAL AVE, PO BOX 910, BOULDER CREEK, CA 95006",
        "googleMapsUrl": "http://maps.google.com/maps?q=BOULDER%20CREEK%20DRUG%20STORE%2C13081%20CENTRAL%20AVE%2C+BOULDER%20CREEK%2C+CA+95006",
        "lat": 37.123665,
        "lng": -122.12175,
        "name": "BOULDER CREEK DRUG STORE",
        "postal": 95006,
        "source": "DEA",
        "source_date": "Dec2018",
        "state": "CA"
    },
    {
        "address": "326 NORTH MAIN, KAYSVILLE, UT 84037",
        "googleMapsUrl": "http://maps.google.com/maps?q=BOWMANS%20PHARMACY%2C326%20NORTH%20MAIN%2C+KAYSVILLE%2C+UT+84037",
        "lat": 41.0415119,
        "lng": -111.94069920000001,
        "name": "BOWMAN'S PHARMACY",
        "postal": 84037,
        "source": "DEA",
        "source_date": "Dec2018",
        "state": "UT"
    },
    {
        "address": "25 WEST MAIN STREET, P.O. BOX 556, CASTLE DALE, UT 84513",
        "googleMapsUrl": "http://maps.google.com/maps?q=BOYDS%20FAMILY%20PHARMACY%2C25%20WEST%20MAIN%20STREET%2C+CASTLE%20DALE%2C+UT+84513",
        "lat": 39.211696999999994,
        "lng": -111.02077,
        "name": "BOYDS FAMILY PHARMACY",
        "postal": 84513,
        "source": "DEA",
        "source_date": "Dec2018",
        "state": "UT"
    },
    {
        "address": "PHARMACY DEPT., 17 BELMONT AVE., BRATTLEBORO, VT 05301",
        "googleMapsUrl": "http://maps.google.com/maps?q=BRATTLEBORO%20MEMORIAL%20HOSP%2CPHARMACY%20DEPT.%2C+BRATTLEBORO%2C+VT+05301",
        "lat": 42.8409809,
        "lng": -72.56460909999998,
        "name": "BRATTLEBORO MEMORIAL HOSP",
        "postal": 5301,
        "source": "DEA",
        "source_date": "Dec2018",
        "state": "VT"
    },
    {
        "address": "662 EAST MAIN ST., FRANKFORT, KY 40601",
        "googleMapsUrl": "http://maps.google.com/maps?q=BRAY%20PHARMACY%20INC%2C662%20EAST%20MAIN%20ST.%2C+FRANKFORT%2C+KY+40601",
        "lat": 38.20298,
        "lng": -84.84794000000001,
        "name": "BRAY PHARMACY INC.",
        "postal": 40601,
        "source": "DEA",
        "source_date": "Dec2018",
        "state": "KY"
    },
    {
        "address": "314 WEST RUSK STREET, TYLER, TX 75701",
        "googleMapsUrl": "http://maps.google.com/maps?q=BRICK%20STREET%20PHARMACY%2C314%20WEST%20RUSK%20STREET%2C+TYLER%2C+TX+75701",
        "lat": 32.34091,
        "lng": -95.3034,
        "name": "BRICK STREET PHARMACY",
        "postal": 75701,
        "source": "DEA",
        "source_date": "Dec2018",
        "state": "TX"
    },
    {
        "address": "75 FRANCIS STREET, DEPT OF PHARMACY TWR L2-504, BOSTON, MA 02115",
        "googleMapsUrl": "http://maps.google.com/maps?q=BRIGHAM%20AND%20WOMENS%20HOSPITAL%2C75%20FRANCIS%20STREET%2C+BOSTON%2C+MA+02115",
        "lat": 42.3360919,
        "lng": -71.10670470000001,
        "name": "BRIGHAM AND WOMEN'S HOSPITAL",
        "postal": 2115,
        "source": "DEA",
        "source_date": "Dec2018",
        "state": "MA"
    },
    {
        "address": "850 BOYLSTON STREET, DELIVER TO PHARMACY DEPT, 75 F, CHESTNUT HILL, MA 02467",
        "googleMapsUrl": "http://maps.google.com/maps?q=BRIGHAM%20AND%20WOMENS%20HOSPITAL%2C850%20BOYLSTON%20STREET%2C+CHESTNUT%20HILL%2C+MA+02467",
        "lat": 42.3360919,
        "lng": -71.10670470000001,
        "name": "BRIGHAM AND WOMEN'S HOSPITAL",
        "postal": 2467,
        "source": "DEA",
        "source_date": "Dec2018",
        "state": "MA"
    },
    {
        "address": "908 N. MAIN, PO BOX 788, BRIGHTON, IL 62012",
        "googleMapsUrl": "http://maps.google.com/maps?q=BRIGHTON%20PHARMACY%2C908%20N.%20MAIN%2C+BRIGHTON%2C+IL+62012",
        "lat": 39.047676,
        "lng": -90.1413,
        "name": "BRIGHTON PHARMACY",
        "postal": 62012,
        "source": "DEA",
        "source_date": "Dec2018",
        "state": "IL"
    },
    {
        "address": "217 W BROAD ST, SAINT PAULS, NC 28384",
        "googleMapsUrl": "http://maps.google.com/maps?q=BRISSON%20DRUGS%20INC%2C217%20W%20BROAD%20ST%2C+SAINT%20PAULS%2C+NC+28384",
        "lat": 34.806805,
        "lng": -78.97276,
        "name": "BRISSON DRUGS INC",
        "postal": 28384,
        "source": "DEA",
        "source_date": "Dec2018",
        "state": "NC"
    },
    {
        "address": "1300 WEST LEHIGH AVENUE, SUITE 102, PHILADELPHIA, PA 19132",
        "googleMapsUrl": "http://maps.google.com/maps?q=BROAD%20%20LEHIGH%20PHARMACY%2C1300%20WEST%20LEHIGH%20AVENUE%2C+PHILADELPHIA%2C+PA+19132",
        "lat": 39.993652000000004,
        "lng": -75.152435,
        "name": "BROAD & LEHIGH PHARMACY",
        "postal": 19132,
        "source": "DEA",
        "source_date": "Dec2018",
        "state": "PA"
    },
    {
        "address": "1115 W BROAD STREET, CHESANING, MI 48616",
        "googleMapsUrl": "http://maps.google.com/maps?q=BROAD%20STREET%20PHARMACY%2C1115%20W%20BROAD%20STREET%2C+CHESANING%2C+MI+48616",
        "lat": 43.18614,
        "lng": -84.12741,
        "name": "BROAD STREET PHARMACY",
        "postal": 48616,
        "source": "DEA",
        "source_date": "Dec2018",
        "state": "MI"
    },
    {
        "address": "1365 MAIN STREET, BROCKWAY, PA 15824",
        "googleMapsUrl": "http://maps.google.com/maps?q=BROCKWAY%20DRUG%20COMPANY%20INC%2C1365%20MAIN%20STREET%2C+BROCKWAY%2C+PA+15824",
        "lat": 41.24695,
        "lng": -78.7871,
        "name": "BROCKWAY DRUG COMPANY INC",
        "postal": 15824,
        "source": "DEA",
        "source_date": "Dec2018",
        "state": "PA"
    },
    {
        "address": "363 FREMONT ST., SUITE 111, BATTLE CREEK, MI 49017",
        "googleMapsUrl": "http://maps.google.com/maps?q=BRONSON%20BATTLE%20CREEK%20OUTPATIENT%20PHARMACY%2C363%20FREMONT%20ST.%2C+BATTLE%20CREEK%2C+MI+49017",
        "lat": 42.333335999999996,
        "lng": -85.17751,
        "name": "BRONSON BATTLE CREEK OUTPATIENT PHARMACY",
        "postal": 49017,
        "source": "DEA",
        "source_date": "Dec2018",
        "state": "MI"
    },
    {
        "address": "80 PONCE DE LEON BLVD, BROOKSVILLE, FL 34601",
        "googleMapsUrl": "http://maps.google.com/maps?q=BROOKSVILLE%20DRUGS%20INC%2C80%20PONCE%20DE%20LEON%20BLVD%2C+BROOKSVILLE%2C+FL+34601",
        "lat": 28.554077000000003,
        "lng": -82.397382,
        "name": "BROOKSVILLE DRUGS, INC.",
        "postal": 34601,
        "source": "DEA",
        "source_date": "Dec2018",
        "state": "FL"
    },
    {
        "address": "225 MAIN STREET, P.O. BOX 308, UNADILLA, NY 13849",
        "googleMapsUrl": "http://maps.google.com/maps?q=BROWNS%20PHARMACY%2C225%20MAIN%20STREET%2C+UNADILLA%2C+NY+13849",
        "lat": 42.32522,
        "lng": -75.31285,
        "name": "BROWN'S PHARMACY",
        "postal": 13849,
        "source": "DEA",
        "source_date": "Dec2018",
        "state": "NY"
    },
    {
        "address": "308 WESTWOOD PLAZA A-250, LOS ANGELES, CA 90095",
        "googleMapsUrl": "http://maps.google.com/maps?q=BRUIN%20HEALTH%20PHARMACY%2C308%20WESTWOOD%20PLAZA%20A-250%2C+LOS%20ANGELES%2C+CA+90095",
        "lat": 34.0725,
        "lng": -118.4449,
        "name": "BRUIN HEALTH PHARMACY",
        "postal": 90095,
        "source": "DEA",
        "source_date": "Dec2018",
        "state": "CA"
    },
    {
        "address": "192 VILLAGE DRIVE, JACKSONVILLE, NC 28546",
        "googleMapsUrl": "http://maps.google.com/maps?q=BRYNN%20MARR%20HOSPITAL%2C192%20VILLAGE%20DRIVE%2C+JACKSONVILLE%2C+NC+28546",
        "lat": 34.747078,
        "lng": -77.37451999999999,
        "name": "BRYNN MARR HOSPITAL",
        "postal": 28546,
        "source": "DEA",
        "source_date": "Dec2018",
        "state": "NC"
    },
    {
        "address": "203 RAILROAD ST., BUILDING 2, SUITE B, BUDA, TX 78610",
        "googleMapsUrl": "http://maps.google.com/maps?q=BUDA%20DRUG%20STORE%2C203%20RAILROAD%20ST.%2C+BUDA%2C+TX+78610",
        "lat": 30.081204999999997,
        "lng": -97.84241,
        "name": "BUDA DRUG STORE",
        "postal": 78610,
        "source": "DEA",
        "source_date": "Dec2018",
        "state": "TX"
    },
    {
        "address": "2015 LIBRARY CIRCLE, #102, GRAND FORKS, ND 58201",
        "googleMapsUrl": "http://maps.google.com/maps?q=BUDGET%20DRUG%2C2015%20LIBRARY%20CIRCLE%2C%20#102%2C+GRAND%20FORKS%2C+ND+58201",
        "lat": 47.900085,
        "lng": -97.04963000000001,
        "name": "BUDGET DRUG",
        "postal": 58201,
        "source": "DEA",
        "source_date": "Dec2018",
        "state": "ND"
    },
    {
        "address": "403 HWY 24 S, PO BOX 1670, BUENA VISTA, CO 81211",
        "googleMapsUrl": "http://maps.google.com/maps?q=BUENA%20VISTA%20DRUG%20DBA%2C403%20HWY%2024%20S%2C+BUENA%20VISTA%2C+CO+81211",
        "lat": 38.8447546,
        "lng": -106.13414840000002,
        "name": "BUENA VISTA DRUG (DBA)",
        "postal": 81211,
        "source": "DEA",
        "source_date": "Dec2018",
        "state": "CO"
    },
    {
        "address": "13355 DIX TOLEDO ROAD, SOUTHGATE, MI 48195",
        "googleMapsUrl": "http://maps.google.com/maps?q=BYRON%20DRUGS%2C13355%20DIX%20TOLEDO%20ROAD%2C+SOUTHGATE%2C+MI+48195",
        "lat": 42.210598,
        "lng": -83.19739,
        "name": "BYRON DRUGS",
        "postal": 48195,
        "source": "DEA",
        "source_date": "Dec2018",
        "state": "MI"
    },
    {
        "address": "1515 NORTH 400 EAST, SUITE 104, NORTH LOGAN, UT 84341",
        "googleMapsUrl": "http://maps.google.com/maps?q=CACHE%20VALLEY%20COMMUNITY%20HEALTH%20CENTER%20PHARMACY%2C1515%20NORTH%20400%20EAST%2C+NORTH%20LOGAN%2C+UT+84341",
        "lat": 41.759228,
        "lng": -111.823975,
        "name": "CACHE VALLEY COMMUNITY HEALTH CENTER PHARMACY",
        "postal": 84341,
        "source": "DEA",
        "source_date": "Dec2018",
        "state": "UT"
    },
    {
        "address": "108 NORTH MITCHELL, CADILLAC, MI 49601",
        "googleMapsUrl": "http://maps.google.com/maps?q=CADILLAC%20FAMILY%20PHARMACY%20LLC%2C108%20NORTH%20MITCHELL%2C+CADILLAC%2C+MI+49601",
        "lat": 44.250458,
        "lng": -85.39950999999999,
        "name": "CADILLAC FAMILY PHARMACY, LLC",
        "postal": 49601,
        "source": "DEA",
        "source_date": "Dec2018",
        "state": "MI"
    },
    {
        "address": "HEALTH SERVICES PHARMACY, BLDG #27, SAN LUIS OBISPO, CA 93407",
        "googleMapsUrl": "http://maps.google.com/maps?q=CALIF%20POLYTECHNIC%20STATE%20UNIV%2CHEALTH%20SERVICES%20PHARMACY%2C+SAN%20LUIS%20OBISPO%2C+CA+93407",
        "lat": 35.9058885,
        "lng": -79.04949609999998,
        "name": "CALIF POLYTECHNIC STATE UNIV",
        "postal": 93407,
        "source": "DEA",
        "source_date": "Dec2018",
        "state": "CA"
    },
    {
        "address": "615 WELLS STREET, SISTERSVILLE, WV 26175",
        "googleMapsUrl": "http://maps.google.com/maps?q=CAMERLIN%20ENTERPRISES%20LLC%2C615%20WELLS%20STREET%2C+SISTERSVILLE%2C+WV+26175",
        "lat": 39.56456,
        "lng": -80.99506,
        "name": "CAMERLIN ENTERPRISES, LLC",
        "postal": 26175,
        "source": "DEA",
        "source_date": "Dec2018",
        "state": "WV"
    },
    {
        "address": "17788 147TH ST SE, MONROE, WA 98272",
        "googleMapsUrl": "http://maps.google.com/maps?q=CAMP%20RILEY%20DRUG%20INC%20DBA%20PHARMASAVE%20MONROE%2C17788%20147TH%20ST%20SE%2C+MONROE%2C+WA+98272",
        "lat": 47.863792,
        "lng": -121.99258999999999,
        "name": "CAMP RILEY DRUG INC DBA PHARMASAVE MONROE",
        "postal": 98272,
        "source": "DEA",
        "source_date": "Dec2018",
        "state": "WA"
    },
    {
        "address": "1201 CAMINO DE SALUD NE, ALBUQUERQUE, NM 87102",
        "googleMapsUrl": "http://maps.google.com/maps?q=CANCER%20CENTER%20PHARMACY%2C1201%20CAMINO%20DE%20SALUD%20NE%2C+ALBUQUERQUE%2C+NM+87102",
        "lat": 35.095872,
        "lng": -106.6277341,
        "name": "CANCER CENTER PHARMACY",
        "postal": 87102,
        "source": "DEA",
        "source_date": "Dec2018",
        "state": "NM"
    },
    {
        "address": "760 CABARRUS AVE W., CONCORD, NC 28027",
        "googleMapsUrl": "http://maps.google.com/maps?q=CANNON%20PHARMACY%20CONCORD%2C760%20CABARRUS%20AVE%20W.%2C+CONCORD%2C+NC+28027",
        "lat": 35.395920000000004,
        "lng": -80.61033,
        "name": "CANNON PHARMACY CONCORD",
        "postal": 28027,
        "source": "DEA",
        "source_date": "Dec2018",
        "state": "NC"
    },
    {
        "address": "467 VISTA AVE, PAGE, AZ 86040",
        "googleMapsUrl": "http://maps.google.com/maps?q=CANYONLANDS%20COMMUNITY%20HEALTHCARE%2C467%20VISTA%20AVE%2C+PAGE%2C+AZ+86040",
        "lat": 36.91834,
        "lng": -111.46376000000001,
        "name": "CANYONLANDS COMMUNITY HEALTHCARE",
        "postal": 86040,
        "source": "DEA",
        "source_date": "Dec2018",
        "state": "AZ"
    },
    {
        "address": "27 PARK STREET, HYANNIS, MA 02601",
        "googleMapsUrl": "http://maps.google.com/maps?q=CAPE%20COD%20HEALTHCARE%20PHARMACY%20AT%20CCH%2C27%20PARK%20STREET%2C+HYANNIS%2C+MA+02601",
        "lat": 41.654377000000004,
        "lng": -70.273544,
        "name": "CAPE COD HEALTHCARE PHARMACY AT CCH",
        "postal": 2601,
        "source": "DEA",
        "source_date": "Dec2018",
        "state": "MA"
    },
    {
        "address": "100 TER HEUN DRIVE, FALMOUTH, MA 02540",
        "googleMapsUrl": "http://maps.google.com/maps?q=CAPE%20COD%20HEALTHCARE%20PHARMACY%20AT%20FALMOUTH%20HOSPITAL%2C100%20TER%20HEUN%20DRIVE%2C+FALMOUTH%2C+MA+02540",
        "lat": 41.564934,
        "lng": -70.62106,
        "name": "CAPE COD HEALTHCARE PHARMACY AT FALMOUTH HOSPITAL",
        "postal": 2540,
        "source": "DEA",
        "source_date": "Dec2018",
        "state": "MA"
    },
    {
        "address": "2800-18 RAEFORD RD, FAYETTEVILLE, NC 28303",
        "googleMapsUrl": "http://maps.google.com/maps?q=CAPE%20FEAR%20DISCOUNT%20DRUG%2C2800-18%20RAEFORD%20RD%2C+FAYETTEVILLE%2C+NC+28303",
        "lat": 35.045406,
        "lng": -78.92549,
        "name": "CAPE FEAR DISCOUNT DRUG",
        "postal": 28303,
        "source": "DEA",
        "source_date": "Dec2018",
        "state": "NC"
    },
    {
        "address": "5235 S COLLEGE RD, WILMINGTON, NC 28412",
        "googleMapsUrl": "http://maps.google.com/maps?q=CAPE%20FEAR%20PHARMACY%2C5235%20S%20COLLEGE%20RD%2C+WILMINGTON%2C+NC+28412",
        "lat": 34.143609999999995,
        "lng": -77.892624,
        "name": "CAPE FEAR PHARMACY",
        "postal": 28412,
        "source": "DEA",
        "source_date": "Dec2018",
        "state": "NC"
    },
    {
        "address": "2557 MOWRY AVE, SUITE # 11, FREMONT, CA 94538",
        "googleMapsUrl": "http://maps.google.com/maps?q=CAPSULE%20PHARMACY%2C2557%20MOWRY%20AVE%2C+FREMONT%2C+CA+94538",
        "lat": 37.556,
        "lng": -121.9825,
        "name": "CAPSULE PHARMACY",
        "postal": 94538,
        "source": "DEA",
        "source_date": "Dec2018",
        "state": "CA"
    },
    {
        "address": "2410 SAMPSON STREET, BLDG 237 (PHARMACY DEPARTMENT), GREAT LAKES, IL 60088",
        "googleMapsUrl": "http://maps.google.com/maps?q=CAPT%20JAMES%20A%20LOVELL%20FEDERAL%20HEALTH%20CARE%20CENTER%2C2410%20SAMPSON%20STREET%2C+GREAT%20LAKES%2C+IL+60088",
        "lat": 42.312893,
        "lng": -87.83964,
        "name": "CAPT. JAMES A. LOVELL FEDERAL HEALTH CARE CENTER",
        "postal": 60088,
        "source": "DEA",
        "source_date": "Dec2018",
        "state": "IL"
    },
    {
        "address": "2430 ILLINOIS STREET, BLDG 1007 (PHARMACY DEPARTMENT), GREAT LAKES, IL 60088",
        "googleMapsUrl": "http://maps.google.com/maps?q=CAPT%20JAMES%20A%20LOVELL%20FEDERAL%20HEALTH%20CARE%20CENTER%2C2430%20ILLINOIS%20STREET%2C+GREAT%20LAKES%2C+IL+60088",
        "lat": 42.308155,
        "lng": -87.85013599999999,
        "name": "CAPT. JAMES A. LOVELL FEDERAL HEALTH CARE CENTER",
        "postal": 60088,
        "source": "DEA",
        "source_date": "Dec2018",
        "state": "IL"
    },
    {
        "address": "2630 GREEN BAY ROAD, BLDG 3452 (PHARMACY DEPARTMENT), GREAT LAKES, IL 60088",
        "googleMapsUrl": "http://maps.google.com/maps?q=CAPT%20JAMES%20A%20LOVELL%20FEDERAL%20HEALTH%20CARE%20CENTER%2C2630%20GREEN%20BAY%20ROAD%2C+GREAT%20LAKES%2C+IL+60088",
        "lat": 42.3124475,
        "lng": -87.86466120000001,
        "name": "CAPT. JAMES A. LOVELL FEDERAL HEALTH CARE CENTER",
        "postal": 60088,
        "source": "DEA",
        "source_date": "Dec2018",
        "state": "IL"
    },
    {
        "address": "3440 OHIO STREET, BLDG 1017 (PHARMACY DEPARTMENT), GREAT LAKES, IL 60088",
        "googleMapsUrl": "http://maps.google.com/maps?q=CAPT%20JAMES%20A%20LOVELL%20FEDERAL%20HEALTH%20CARE%20CENTER%2C3440%20OHIO%20STREET%2C+GREAT%20LAKES%2C+IL+60088",
        "lat": 42.301228,
        "lng": -87.84735,
        "name": "CAPT. JAMES A. LOVELL FEDERAL HEALTH CARE CENTER",
        "postal": 60088,
        "source": "DEA",
        "source_date": "Dec2018",
        "state": "IL"
    },
    {
        "address": "1665 HIGHWAY 34E, SUITE 100, NEWNAN, GA 30265",
        "googleMapsUrl": "http://maps.google.com/maps?q=CARE%20PLUS%20PHARMACY%20LLC%2C1665%20HIGHWAY%2034E%2C+NEWNAN%2C+GA+30265",
        "lat": 33.4004359,
        "lng": -84.72412440000001,
        "name": "CARE PLUS PHARMACY LLC",
        "postal": 30265,
        "source": "DEA",
        "source_date": "Dec2018",
        "state": "GA"
    },