[{"name":"MUNCIE SANITARY DISTRICT","source":"MedReturn_Box","address":"300 N HIGH ST, MUNCIE IN 47305","postal":47305,"state":"IN","lat":40.19574,"lng":-85.38708,"googleMapsUrl":"https://www.google.com/maps/place/300%20N%20HIGH%20ST,%20MUNCIE%20IN%2047305"},{"name":"Hamilton County Sheriff's Office","source":"MedReturn_Box","address":"18100 Cumberland Road, Noblesville IN 46060","postal":46060,"state":"IN","lat":40.05204,"lng":-85.99325,"googleMapsUrl":"https://www.google.com/maps/place/18100%20Cumberland%20Road,%20Noblesville%20IN%2046060"},{"name":"Dunkirk Police Department","source":"MedReturn_Box","address":"130 South Main Street, Dunkirk IN 47336","postal":47336,"state":"IN","lat":40.37475,"lng":-85.20999,"googleMapsUrl":"https://www.google.com/maps/place/130%20South%20Main%20Street,%20Dunkirk%20IN%2047336"},{"name":"FISHERS POLICE DEPARTMENT","source":"MedReturn_Box","address":"4 MUNICIPAL DRIVE, FISHERS IN 46038","postal":46038,"state":"IN","lat":39.95953,"lng":-86.01623,"googleMapsUrl":"https://www.google.com/maps/place/4%20MUNICIPAL%20DRIVE,%20FISHERS%20IN%2046038"},{"name":"WESTFIELD POLICE DEPT","source":"MedReturn_Box","address":"17535 DARTOWN RD, WESTFIELD IN 46074","postal":46074,"state":"IN","lat":40.04176,"lng":-86.15027,"googleMapsUrl":"https://www.google.com/maps/place/17535%20DARTOWN%20RD,%20WESTFIELD%20IN%2046074"},{"name":"GALVESTON POLICE DEPT","source":"MedReturn_Box","address":"300 SOUTH CALIFORNIA, GALVESTON IN 46932","postal":46932,"state":"IN","lat":40.57509,"lng":-86.1892,"googleMapsUrl":"https://www.google.com/maps/place/300%20SOUTH%20CALIFORNIA,%20GALVESTON%20IN%2046932"},{"name":"Portland Police Department","source":"MedReturn_Box","address":"319 N. Meridian , Portland IN 47371","postal":47371,"state":"IN","lat":40.43588,"lng":-84.97789,"googleMapsUrl":"https://www.google.com/maps/place/319%20N.%20Meridian%20,%20Portland%20IN%2047371"},{"name":"SPEEDWAY POLICE DEPT","source":"MedReturn_Box","address":"1410 N LYNHURST DR, SPEEDWAY IN 46224","postal":46224,"state":"IN","lat":39.78539,"lng":-86.25111,"googleMapsUrl":"https://www.google.com/maps/place/1410%20N%20LYNHURST%20DR,%20SPEEDWAY%20IN%2046224"},{"name":"UNION CITY CITY COURT","source":"MedReturn_Box","address":"219 S HOWARD ST, UNION CITY IN 47390","postal":47390,"state":"IN","lat":40.19639,"lng":-84.8094,"googleMapsUrl":"https://www.google.com/maps/place/219%20S%20HOWARD%20ST,%20UNION%20CITY%20IN%2047390"},{"name":"FLORA POLICE DEPT","source":"MedReturn_Box","address":"27 W MAIN STREET, FLORA IN 46929","postal":46929,"state":"IN","lat":40.5481,"lng":-86.52406,"googleMapsUrl":"https://www.google.com/maps/place/27%20W%20MAIN%20STREET,%20FLORA%20IN%2046929"},{"name":"Connersville Police Department","source":"MedReturn_Box","address":"100 E 5th Street, Connersville IN 47331","postal":47331,"state":"IN","lat":39.64152,"lng":-85.13886,"googleMapsUrl":"https://www.google.com/maps/place/100%20E%205th%20Street,%20Connersville%20IN%2047331"},{"name":"LOGANSPORT POLICE DEPT","source":"MedReturn_Box","address":"601 E BROADWAY 2ND FLR, LOGANSPORT IN 46941","postal":46941,"state":"IN","lat":40.75423,"lng":-86.36254,"googleMapsUrl":"https://www.google.com/maps/place/601%20E%20BROADWAY%202ND%20FLR,%20LOGANSPORT%20IN%2046941"},{"name":"MOORESVILLE POLICE DEPT","source":"MedReturn_Box","address":"104 W MAIN ST, MOORESVILLE IN 46158","postal":46158,"state":"IN","lat":39.61298,"lng":-86.37765,"googleMapsUrl":"https://www.google.com/maps/place/104%20W%20MAIN%20ST,%20MOORESVILLE%20IN%2046158"},{"name":"CARROLL COUNTY SHERIFFS OFFICE","source":"MedReturn_Box","address":"310 W MAIN ST, DELPHI IN 46923","postal":46923,"state":"IN","lat":40.58477,"lng":-86.67669,"googleMapsUrl":"https://www.google.com/maps/place/310%20W%20MAIN%20ST,%20DELPHI%20IN%2046923"},{"name":"ROYAL CENTER TOWN HALL","source":"MedReturn_Box","address":"104 EAST NORTH ST, ROYAL CENTER IN 46978","postal":46978,"state":"IN","lat":40.86488,"lng":-86.4988,"googleMapsUrl":"https://www.google.com/maps/place/104%20EAST%20NORTH%20ST,%20ROYAL%20CENTER%20IN%2046978"},{"name":"MARTINSVILLE CITY POLICE DEPT","source":"MedReturn_Box","address":"59 S JEFFERSON ST, MARTINSVILLE IN 46151","postal":46151,"state":"IN","lat":39.42617,"lng":-86.42695,"googleMapsUrl":"https://www.google.com/maps/place/59%20S%20JEFFERSON%20ST,%20MARTINSVILLE%20IN%2046151"},{"name":"CITY OF ST MARYS FIRE DEPT","source":"MedReturn_Box","address":"222 INDIANA AVE, ST MARYS OH 45885","postal":45885,"state":"OH","lat":40.54606,"lng":-84.39234,"googleMapsUrl":"https://www.google.com/maps/place/222%20INDIANA%20AVE,%20ST%20MARYS%20OH%2045885"},{"name":"Pulaski County Sheriff's Office","source":"MedReturn_Box","address":"110 East Meridian St, Winamac IN 46996","postal":46996,"state":"IN","lat":41.05011,"lng":-86.60308,"googleMapsUrl":"https://www.google.com/maps/place/110%20East%20Meridian%20St,%20Winamac%20IN%2046996"},{"name":"Greencastle Police Department","source":"MedReturn_Box","address":"600 N. Jackson St., Greencastle IN 46135","postal":46135,"state":"IN","lat":39.64885,"lng":-86.8655,"googleMapsUrl":"https://www.google.com/maps/place/600%20N.%20Jackson%20St.,%20Greencastle%20IN%2046135"},{"name":"CITY OF ENGLEWOOD","source":"MedReturn_Box","address":"1111 UNION ROAD, ENGLEWOOD OH 45322","postal":45322,"state":"OH","lat":39.8562,"lng":-84.31183,"googleMapsUrl":"https://www.google.com/maps/place/1111%20UNION%20ROAD,%20ENGLEWOOD%20OH%2045322"},{"name":"Miami County Sheriff's Office","source":"MedReturn_Box","address":"201 W Main St, Troy OH 45373","postal":45373,"state":"OH","lat":40.04091,"lng":-84.2047,"googleMapsUrl":"https://www.google.com/maps/place/201%20W%20Main%20St,%20Troy%20OH%2045373"},{"name":"Auglaize County Sheriff's Office","source":"MedReturn_Box","address":"1051 Dearbaugh Ave, Wapakoneta OH 45895","postal":45895,"state":"OH","lat":40.55961,"lng":-84.20854,"googleMapsUrl":"https://www.google.com/maps/place/1051%20Dearbaugh%20Ave,%20Wapakoneta%20OH%2045895"},{"name":"Wapakoneta Police Department","source":"MedReturn_Box","address":"701 Parlette Court, Wapakoneta OH 45895","postal":45895,"state":"OH","lat":40.57785,"lng":-84.20288,"googleMapsUrl":"https://www.google.com/maps/place/701%20Parlette%20Court,%20Wapakoneta%20OH%2045895"},{"name":"Versailles Police Department","source":"MedReturn_Box","address":"118 West Water Street, Versailles IN 47042","postal":47042,"state":"IN","lat":39.07076,"lng":-85.25357,"googleMapsUrl":"https://www.google.com/maps/place/118%20West%20Water%20Street,%20Versailles%20IN%2047042"},{"name":"NAPPANEE POLICE DEPT","source":"MedReturn_Box","address":"301 W LINCOLN STREET, NAPPANEE IN 46550","postal":46550,"state":"IN","lat":41.44167,"lng":-86.00385,"googleMapsUrl":"https://www.google.com/maps/place/301%20W%20LINCOLN%20STREET,%20NAPPANEE%20IN%2046550"},{"name":"Dayton Police Department","source":"MedReturn_Box","address":"335 West Third Street, Dayton OH 45402","postal":45402,"state":"OH","lat":39.75894,"lng":-84.19766,"googleMapsUrl":"https://www.google.com/maps/place/335%20West%20Third%20Street,%20Dayton%20OH%2045402"},{"name":"KINGSTON OF MIAMISBURG","source":"MedReturn_Box","address":"1120 S DUNAWAY ST, MIAMISBURG OH 45352","postal":45352,"state":"OH","lat":39.62505,"lng":-84.26183,"googleMapsUrl":"https://www.google.com/maps/place/1120%20S%20DUNAWAY%20ST,%20MIAMISBURG%20OH%2045352"},{"name":"COMMUNITY SERVICES OF STARKE COUNTY","source":"MedReturn_Box","address":"311 E CULVER RD, KNOX IN 46534","postal":46534,"state":"IN","lat":41.2881,"lng":-86.61929,"googleMapsUrl":"https://www.google.com/maps/place/311%20E%20CULVER%20RD,%20KNOX%20IN%2046534"},{"name":"KNOX POLICE DEPARTMENT","source":"MedReturn_Box","address":"101 WEST WASHINGTON ST, KNOX IN 46534","postal":46534,"state":"IN","lat":41.29913,"lng":-86.62408,"googleMapsUrl":"https://www.google.com/maps/place/101%20WEST%20WASHINGTON%20ST,%20KNOX%20IN%2046534"},{"name":"MONROE POLICE DEPARTMENT","source":"MedReturn_Box","address":"233 S MAIN ST, MONROE OH 45050","postal":45050,"state":"OH","lat":39.441,"lng":-84.36291,"googleMapsUrl":"https://www.google.com/maps/place/233%20S%20MAIN%20ST,%20MONROE%20OH%2045050"},{"name":"WAKARUSA POLICE DEPT","source":"MedReturn_Box","address":"102 S SPRING STREET, WAKARUSA IN 46573","postal":46573,"state":"IN","lat":41.53578,"lng":-86.01768,"googleMapsUrl":"https://www.google.com/maps/place/102%20S%20SPRING%20STREET,%20WAKARUSA%20IN%2046573"},{"name":"Jasper County Sheriff's Office","source":"MedReturn_Box","address":"2171 N McKinley Ave, Rensselaer IN 47978","postal":47978,"state":"IN","lat":40.95988,"lng":-87.15132,"googleMapsUrl":"https://www.google.com/maps/place/2171%20N%20McKinley%20Ave,%20Rensselaer%20IN%2047978"},{"name":"GOSHEN POLICE DEPT","source":"MedReturn_Box","address":"111 E JEFFERSON STREET, GOSHEN IN 46526","postal":46526,"state":"IN","lat":41.5837,"lng":-85.83428,"googleMapsUrl":"https://www.google.com/maps/place/111%20E%20JEFFERSON%20STREET,%20GOSHEN%20IN%2046526"},{"name":"TOWN OF MIDDLEBURY","source":"MedReturn_Box","address":"418 N MAIN ST, MIDDLEBURY IN 46540","postal":46540,"state":"IN","lat":41.68438,"lng":-85.70065,"googleMapsUrl":"https://www.google.com/maps/place/418%20N%20MAIN%20ST,%20MIDDLEBURY%20IN%2046540"},{"name":"ELKHART CITY POLICE DEPT","source":"MedReturn_Box","address":"175 WATERFALL DRIVE, ELKHART IN 46516","postal":46516,"state":"IN","lat":41.68426,"lng":-85.96919,"googleMapsUrl":"https://www.google.com/maps/place/175%20WATERFALL%20DRIVE,%20ELKHART%20IN%2046516"},{"name":"URBANA POLICE DEPT","source":"MedReturn_Box","address":"205 SOUTH MAIN ST, URBANA OH 43078","postal":43078,"state":"OH","lat":40.10656,"lng":-83.7522,"googleMapsUrl":"https://www.google.com/maps/place/205%20SOUTH%20MAIN%20ST,%20URBANA%20OH%2043078"},{"name":"BRISTOL POLICE DEPT","source":"MedReturn_Box","address":"301 EAST VISTULA, BRISTOL IN 46507","postal":46507,"state":"IN","lat":41.72127,"lng":-85.81467,"googleMapsUrl":"https://www.google.com/maps/place/301%20EAST%20VISTULA,%20BRISTOL%20IN%2046507"},{"name":"INDIANA STATE POLICE - DISTRICT 21 TOLL ROAD","source":"MedReturn_Box","address":"52422 CR 17, BRISTOL IN 46507","postal":46507,"state":"IN","lat":41.73207,"lng":-85.88846,"googleMapsUrl":"https://www.google.com/maps/place/52422%20CR%2017,%20BRISTOL%20IN%2046507"},{"name":"ELKHART COUNTY SHERIFF'S DEPT","source":"MedReturn_Box","address":"26861 CR 6, ELKHART IN 46516","postal":46516,"state":"IN","lat":41.72437,"lng":-85.98288,"googleMapsUrl":"https://www.google.com/maps/place/26861%20CR%206,%20ELKHART%20IN%2046516"},{"name":"Terrace Park Police Department","source":"MedReturn_Box","address":"428 Elm Avenue, Terrace Park OH 45174","postal":45174,"state":"OH","lat":39.16397,"lng":-84.30957,"googleMapsUrl":"https://www.google.com/maps/place/428%20Elm%20Avenue,%20Terrace%20Park%20OH%2045174"},{"name":"UNIVERSITY OF NOTRE DAME","source":"MedReturn_Box","address":"100 MASON CENTER, NOTRE DAME IN 46556","postal":46556,"state":"IN","lat":41.71059,"lng":-86.23696,"googleMapsUrl":"https://www.google.com/maps/place/100%20MASON%20CENTER,%20NOTRE%20DAME%20IN%2046556"},{"name":"TERRE HAUTE POLICE DEPT","source":"MedReturn_Box","address":"1211 WABASH AVE, TERRE HAUTE IN 47807","postal":47807,"state":"IN","lat":39.46733,"lng":-87.39882,"googleMapsUrl":"https://www.google.com/maps/place/1211%20WABASH%20AVE,%20TERRE%20HAUTE%20IN%2047807"},{"name":"Henry County Sheriff's Office","source":"MedReturn_Box","address":"123 E. Washington St., Napoleon OH 43545","postal":43545,"state":"OH","lat":41.39116,"lng":-84.12378,"googleMapsUrl":"https://www.google.com/maps/place/123%20E.%20Washington%20St.,%20Napoleon%20OH%2043545"},{"name":"Archbold Police Department","source":"MedReturn_Box","address":"405 E. Lutz Rd., Archbold OH 43502","postal":43502,"state":"OH","lat":41.52831,"lng":-84.30195,"googleMapsUrl":"https://www.google.com/maps/place/405%20E.%20Lutz%20Rd.,%20Archbold%20OH%2043502"},{"name":"Trimble County Sheriff's Office","source":"MedReturn_Box","address":"30 Hwy 42 E, Bedford KY 40006","postal":40006,"state":"KY","lat":38.59338,"lng":-85.31735,"googleMapsUrl":"https://www.google.com/maps/place/30%20Hwy%2042%20E,%20Bedford%20KY%2040006"},{"name":"London Police Department","source":"MedReturn_Box","address":"10 East First Street, London OH 43140","postal":43140,"state":"OH","lat":39.88518,"lng":-83.44637,"googleMapsUrl":"https://www.google.com/maps/place/10%20East%20First%20Street,%20London%20OH%2043140"},{"name":"Fayette Police Department","source":"MedReturn_Box","address":"102 W. Main Street, Fayette OH 43521","postal":43521,"state":"OH","lat":41.67389,"lng":-84.32782,"googleMapsUrl":"https://www.google.com/maps/place/102%20W.%20Main%20Street,%20Fayette%20OH%2043521"},{"name":"Fulton COunty Sheriffs Office","source":"MedReturn_Box","address":"129 Courthouse Plaza, Wauseon OH 43567","postal":43567,"state":"OH","lat":41.56858,"lng":-84.12714,"googleMapsUrl":"https://www.google.com/maps/place/129%20Courthouse%20Plaza,%20Wauseon%20OH%2043567"},{"name":"North Baltimore Police Department","source":"MedReturn_Box","address":"203 N. Main St, North Baltimore OH 45872","postal":45872,"state":"OH","lat":41.18324,"lng":-83.67838,"googleMapsUrl":"https://www.google.com/maps/place/203%20N.%20Main%20St,%20North%20Baltimore%20OH%2045872"},{"name":"THE VILLAGE OF WHITEHOUSE","source":"MedReturn_Box","address":"6925 PROVIDENCE ST, WHITEHOUSE OH 43571","postal":43571,"state":"OH","lat":41.51421,"lng":-83.80223,"googleMapsUrl":"https://www.google.com/maps/place/6925%20PROVIDENCE%20ST,%20WHITEHOUSE%20OH%2043571"},{"name":"SWANTON FIRE DEPT","source":"MedReturn_Box","address":"432 CHURCH ST, SWANTON OH 43558","postal":43558,"state":"OH","lat":41.592,"lng":-83.88364,"googleMapsUrl":"https://www.google.com/maps/place/432%20CHURCH%20ST,%20SWANTON%20OH%2043558"},{"name":"Wood County Sheriff's Office","source":"MedReturn_Box","address":"1960 E. Gypsy Ln. Rd., Bowling Green OH 43402","postal":43402,"state":"OH","lat":41.35502,"lng":-83.61201,"googleMapsUrl":"https://www.google.com/maps/place/1960%20E.%20Gypsy%20Ln.%20Rd.,%20Bowling%20Green%20OH%2043402"},{"name":"Hilliard Division of Police","source":"MedReturn_Box","address":"5171 Northwest Parkway, Hilliard OH 43026","postal":43026,"state":"OH","lat":40.03696,"lng":-83.15481,"googleMapsUrl":"https://www.google.com/maps/place/5171%20Northwest%20Parkway,%20Hilliard%20OH%2043026"},{"name":"VILLAGE OF WATERVILLE","source":"MedReturn_Box","address":"25 N SECOND STREET, WATERVILLE OH 43566","postal":43566,"state":"OH","lat":41.4999,"lng":-83.71885,"googleMapsUrl":"https://www.google.com/maps/place/25%20N%20SECOND%20STREET,%20WATERVILLE%20OH%2043566"},{"name":"MONCLOVA TOWNSHIP FIRE DEPT","source":"MedReturn_Box","address":"4395 ALBON RD, MONCLOVA OH 43542","postal":43542,"state":"OH","lat":41.56036,"lng":-83.73532,"googleMapsUrl":"https://www.google.com/maps/place/4395%20ALBON%20RD,%20MONCLOVA%20OH%2043542"},{"name":"Milltown Police Department","source":"MedReturn_Box","address":"212 Hancock Street Suite B, Milltown IN 47145","postal":47145,"state":"IN","lat":38.34145,"lng":-86.27751,"googleMapsUrl":"https://www.google.com/maps/place/212%20Hancock%20Street%20Suite%20B,%20Milltown%20IN%2047145"},{"name":"The City of Upper Arlington","source":"MedReturn_Box","address":"3600 Tremont Road, Upper Arlington OH 43221","postal":43221,"state":"OH","lat":40.03119,"lng":-83.05092,"googleMapsUrl":"https://www.google.com/maps/place/3600%20Tremont%20Road,%20Upper%20Arlington%20OH%2043221"},{"name":"TOWNSHIP OF SYLVANIA POLICE DEPT","source":"MedReturn_Box","address":"4420 KING RD, SYLVANIA OH 43560","postal":43560,"state":"OH","lat":41.69464,"lng":-83.72221,"googleMapsUrl":"https://www.google.com/maps/place/4420%20KING%20RD,%20SYLVANIA%20OH%2043560"},{"name":"Lucas County Coroner","source":"MedReturn_Box","address":"2595 Arlington Ave., Toledo OH 43614","postal":43614,"state":"OH","lat":41.62257,"lng":-83.60732,"googleMapsUrl":"https://www.google.com/maps/place/2595%20Arlington%20Ave.,%20Toledo%20OH%2043614"},{"name":"Village of Ottawa Hills Police","source":"MedReturn_Box","address":"2125 Richards Road, Toledo OH 43606","postal":43606,"state":"OH","lat":41.66173,"lng":-83.64228,"googleMapsUrl":"https://www.google.com/maps/place/2125%20Richards%20Road,%20Toledo%20OH%2043606"},{"name":"CITY OF SYLVANIA POLICE DEPT","source":"MedReturn_Box","address":"6635 MAPLEWOOD, SYLVANIA OH 43560","postal":43560,"state":"OH","lat":41.71677,"lng":-83.70451,"googleMapsUrl":"https://www.google.com/maps/place/6635%20MAPLEWOOD,%20SYLVANIA%20OH%2043560"},{"name":"UNIV OF TOLEDO-RECEIVING DEPT","source":"MedReturn_Box","address":"328 N WESTWOOD, TOLEDO OH 43607","postal":43607,"state":"OH","lat":41.64219,"lng":-83.60419,"googleMapsUrl":"https://www.google.com/maps/place/328%20N%20WESTWOOD,%20TOLEDO%20OH%2043607"},{"name":"WESTERVILLE POLICE DEPT","source":"MedReturn_Box","address":"29 S STATE ST, WESTERVILLE OH 43081","postal":43081,"state":"OH","lat":40.1252,"lng":-82.93173,"googleMapsUrl":"https://www.google.com/maps/place/29%20S%20STATE%20ST,%20WESTERVILLE%20OH%2043081"},{"name":"Walbridge Police Department","source":"MedReturn_Box","address":"705 N. Main St., Walbridge OH 43465","postal":43465,"state":"OH","lat":41.59425,"lng":-83.49462,"googleMapsUrl":"https://www.google.com/maps/place/705%20N.%20Main%20St.,%20Walbridge%20OH%2043465"},{"name":"City of Toledo Department of Police Operations","source":"MedReturn_Box","address":"525 N Erie, Toledo OH 43604","postal":43604,"state":"OH","lat":41.65603,"lng":-83.53564,"googleMapsUrl":"https://www.google.com/maps/place/525%20N%20Erie,%20Toledo%20OH%2043604"},{"name":"Franklin County Sheriff","source":"MedReturn_Box","address":"231 E. Main Street, Frankfort KY 40601","postal":40601,"state":"KY","lat":38.19803,"lng":-84.86535,"googleMapsUrl":"https://www.google.com/maps/place/231%20E.%20Main%20Street,%20Frankfort%20KY%2040601"},{"name":"Maysville Police Department","source":"MedReturn_Box","address":"212 Government Street, Maysville KY 41034","postal":41034,"state":"KY","lat":38.64561,"lng":-83.76107,"googleMapsUrl":"https://www.google.com/maps/place/212%20Government%20Street,%20Maysville%20KY%2041034"},{"name":"ADAMS COUNTY PROBATION DEPT","source":"MedReturn_Box","address":"110 W MAIN STREET ROOM 235, WEST UNION OH 45693","postal":45693,"state":"OH","lat":38.7954,"lng":-83.54609,"googleMapsUrl":"https://www.google.com/maps/place/110%20W%20MAIN%20STREET%20ROOM%20235,%20WEST%20UNION%20OH%2045693"},{"name":"Huntingburg Police Department","source":"MedReturn_Box","address":"503 E. 1st Street, Huntingburg IN 47542","postal":47542,"state":"IN","lat":38.29117,"lng":-86.95302,"googleMapsUrl":"https://www.google.com/maps/place/503%20E.%201st%20Street,%20Huntingburg%20IN%2047542"},{"name":"Reynoldsburg Division of Police","source":"MedReturn_Box","address":"7240 East Main Street, Reynoldsburg OH 43068","postal":43068,"state":"OH","lat":39.9563,"lng":-82.80573,"googleMapsUrl":"https://www.google.com/maps/place/7240%20East%20Main%20Street,%20Reynoldsburg%20OH%2043068"},{"name":"Georgetown Police Department","source":"MedReturn_Box","address":"1 Quality Drive Suite C, Georgetown KY 40324","postal":40324,"state":"KY","lat":38.18863,"lng":-84.54981,"googleMapsUrl":"https://www.google.com/maps/place/1%20Quality%20Drive%20Suite%20C,%20Georgetown%20KY%2040324"},{"name":"WESTPOINT POLICE DEPT","source":"MedReturn_Box","address":"509 ELM ST, WESTPOINT KY 40177","postal":40177,"state":"KY","lat":38.00032,"lng":-85.94751,"googleMapsUrl":"https://www.google.com/maps/place/509%20ELM%20ST,%20WESTPOINT%20KY%2040177"},{"name":"MEAD COUNTY SHERIFF'S OFFICE","source":"MedReturn_Box","address":"516 HILLCREST DR STE 14, BRANDENBURG KY 40108","postal":40108,"state":"KY","lat":38.00049,"lng":-86.17311,"googleMapsUrl":"https://www.google.com/maps/place/516%20HILLCREST%20DR%20STE%2014,%20BRANDENBURG%20KY%2040108"},{"name":"MULDRAUGH POLICE DEPT","source":"MedReturn_Box","address":"120 S MAIN ST, MULDRAUGH KY 40155","postal":40155,"state":"KY","lat":37.93926,"lng":-85.99327,"googleMapsUrl":"https://www.google.com/maps/place/120%20S%20MAIN%20ST,%20MULDRAUGH%20KY%2040155"},{"name":"LEXINGTON DIVISION OF POLICE","source":"MedReturn_Box","address":"150 EAST MAIN ST, LEXINGTON KY 40507","postal":40507,"state":"KY","lat":38.0452,"lng":-84.49635,"googleMapsUrl":"https://www.google.com/maps/place/150%20EAST%20MAIN%20ST,%20LEXINGTON%20KY%2040507"},{"name":"IRVINGTON POLICE DEPT","source":"MedReturn_Box","address":"109 W CAROLINE, IRVINGTON KY 40146","postal":40146,"state":"KY","lat":37.88138,"lng":-86.28402,"googleMapsUrl":"https://www.google.com/maps/place/109%20W%20CAROLINE,%20IRVINGTON%20KY%2040146"},{"name":"CITY OF RADCLIFF POLICE DEPT","source":"MedReturn_Box","address":"411 W LINCOLN TRAIL BLVD, RADCLIFF KY 40159","postal":40159,"state":"KY","lat":37.83802,"lng":-85.94404,"googleMapsUrl":"https://www.google.com/maps/place/411%20W%20LINCOLN%20TRAIL%20BLVD,%20RADCLIFF%20KY%2040159"},{"name":"Lewis County Sheriff Departemtn","source":"MedReturn_Box","address":"112 Second Street Suite 102, Vanceburg KY 41179","postal":41179,"state":"KY","lat":38.60408,"lng":-83.31972,"googleMapsUrl":"https://www.google.com/maps/place/112%20Second%20Street%20Suite%20102,%20Vanceburg%20KY%2041179"},{"name":"Tell City Police Department","source":"MedReturn_Box","address":"707 Mozart Street, Tell City IN 47586","postal":47586,"state":"IN","lat":37.95072,"lng":-86.7528,"googleMapsUrl":"https://www.google.com/maps/place/707%20Mozart%20Street,%20Tell%20City%20IN%2047586"},{"name":"VINE GROVE POLICE DEPT","source":"MedReturn_Box","address":"300 W MAIN ST, VINE GROVE KY 40175","postal":40175,"state":"KY","lat":37.81084,"lng":-85.98384,"googleMapsUrl":"https://www.google.com/maps/place/300%20W%20MAIN%20ST,%20VINE%20GROVE%20KY%2040175"},{"name":"Wilmore Police Department","source":"MedReturn_Box","address":"335 East Main Street, Wilmore KY 40390","postal":40390,"state":"KY","lat":37.85835,"lng":-84.65908,"googleMapsUrl":"https://www.google.com/maps/place/335%20East%20Main%20Street,%20Wilmore%20KY%2040390"},{"name":"CLOVERPORT POLICE DEPT","source":"MedReturn_Box","address":"212 W MAIN ST, CLOVERPORT KY 40111","postal":40111,"state":"KY","lat":37.83696,"lng":-86.63224,"googleMapsUrl":"https://www.google.com/maps/place/212%20W%20MAIN%20ST,%20CLOVERPORT%20KY%2040111"},{"name":"KENTUCKY STATE POLICE","source":"MedReturn_Box","address":"1055 N MULBERRY ST, ELIZABETHTOWN KY 42701","postal":42701,"state":"KY","lat":37.71247,"lng":-85.83189,"googleMapsUrl":"https://www.google.com/maps/place/1055%20N%20MULBERRY%20ST,%20ELIZABETHTOWN%20KY%2042701"},{"name":"BRECKENRIDGE COUNTY SHERIFF'S OFFICE","source":"MedReturn_Box","address":"208 S MAIN ST, HARDINSBURG KY 40143","postal":40143,"state":"KY","lat":37.78092,"lng":-86.46155,"googleMapsUrl":"https://www.google.com/maps/place/208%20S%20MAIN%20ST,%20HARDINSBURG%20KY%2040143"},{"name":"ELIZABETHTOWN POLICE DEPARTMENT","source":"MedReturn_Box","address":"300 SOUTH MULBERRY, ELIZABETHTOWN KY 42701","postal":42701,"state":"KY","lat":37.69137,"lng":-85.86302,"googleMapsUrl":"https://www.google.com/maps/place/300%20SOUTH%20MULBERRY,%20ELIZABETHTOWN%20KY%2042701"},{"name":"CITY OF HODGENVILLE POLICE DEPT","source":"MedReturn_Box","address":"200 S LINCOLN BLVD, HODGENVILLE KY 42748","postal":42748,"state":"KY","lat":37.57252,"lng":-85.7406,"googleMapsUrl":"https://www.google.com/maps/place/200%20S%20LINCOLN%20BLVD,%20HODGENVILLE%20KY%2042748"},{"name":"HENDERSON POLICE DEPT","source":"MedReturn_Box","address":"1990 BARRETT CIRCLE, HENDERSON KY 42420","postal":42420,"state":"KY","lat":37.85932,"lng":-87.57218,"googleMapsUrl":"https://www.google.com/maps/place/1990%20BARRETT%20CIRCLE,%20HENDERSON%20KY%2042420"},{"name":"GRAYSON COUNTY SHERIFF DEPT","source":"MedReturn_Box","address":"44 PUBLIC SQUARE, LEITCHFIELD KY 42754","postal":42754,"state":"KY","lat":37.48008,"lng":-86.29418,"googleMapsUrl":"https://www.google.com/maps/place/44%20PUBLIC%20SQUARE,%20LEITCHFIELD%20KY%2042754"},{"name":"LEITCHFIELD POLICE DEPT","source":"MedReturn_Box","address":"117 S MAIN ST, LEITCHFIELD KY 42754","postal":42754,"state":"KY","lat":37.47812,"lng":-86.2937,"googleMapsUrl":"https://www.google.com/maps/place/117%20S%20MAIN%20ST,%20LEITCHFIELD%20KY%2042754"},{"name":"CARTER COUNTY SHERIFFS OFFICE","source":"MedReturn_Box","address":"300 W MAIN ST 2ND FLOOR, GRAYSON KY 41143","postal":41143,"state":"KY","lat":38.33355,"lng":-82.95176,"googleMapsUrl":"https://www.google.com/maps/place/300%20W%20MAIN%20ST%202ND%20FLOOR,%20GRAYSON%20KY%2041143"},{"name":"CANEYVILLE POLICE DEPT","source":"MedReturn_Box","address":"304 E MAPLE ST, CANEYVILLE KY 42721","postal":42721,"state":"KY","lat":37.42422,"lng":-86.48832,"googleMapsUrl":"https://www.google.com/maps/place/304%20E%20MAPLE%20ST,%20CANEYVILLE%20KY%2042721"},{"name":"Campbellsville Police Department","source":"MedReturn_Box","address":"100 Terri Street, Campbellsville KY 42718","postal":42718,"state":"KY","lat":37.34083,"lng":-85.34587,"googleMapsUrl":"https://www.google.com/maps/place/100%20Terri%20Street,%20Campbellsville%20KY%2042718"},{"name":"OHIO COUNTY SHERIFFS DEPT","source":"MedReturn_Box","address":"301 S MAIN ST, HARTFORD KY 42347","postal":42347,"state":"KY","lat":37.45068,"lng":-86.90857,"googleMapsUrl":"https://www.google.com/maps/place/301%20S%20MAIN%20ST,%20HARTFORD%20KY%2042347"},{"name":"Avon Police Department","source":"MedReturn_Box","address":"36145 Detroit Road, Avon OH 44011","postal":44011,"state":"OH","lat":41.45869,"lng":-82.02248,"googleMapsUrl":"https://www.google.com/maps/place/36145%20Detroit%20Road,%20Avon%20OH%2044011"},{"name":"CITY OF AVON LAKE","source":"MedReturn_Box","address":"32855 WALKER ROAD, AVON LAKE OH 44012","postal":44012,"state":"OH","lat":41.49173,"lng":-82.02179,"googleMapsUrl":"https://www.google.com/maps/place/32855%20WALKER%20ROAD,%20AVON%20LAKE%20OH%2044012"},{"name":"Norton Police Dept","source":"MedReturn_Box","address":"4060 Columbia Woods Dr., Norton OH 44203","postal":44203,"state":"OH","lat":41.02389,"lng":-81.64747,"googleMapsUrl":"https://www.google.com/maps/place/4060%20Columbia%20Woods%20Dr.,%20Norton%20OH%2044203"},{"name":"Barberton Police Department","source":"MedReturn_Box","address":"576 West Park Avenue, Barberton OH 44203","postal":44203,"state":"OH","lat":41.01349,"lng":-81.6108,"googleMapsUrl":"https://www.google.com/maps/place/576%20West%20Park%20Avenue,%20Barberton%20OH%2044203"},{"name":"KENTUCKY STATE POLICE","source":"MedReturn_Box","address":"1118 JAMESTOWN ST, COLUMBIA KY 42728","postal":42728,"state":"KY","lat":37.08931,"lng":-85.30373,"googleMapsUrl":"https://www.google.com/maps/place/1118%20JAMESTOWN%20ST,%20COLUMBIA%20KY%2042728"},{"name":"CITY OF INDEPENDENCE POLICE DEPT","source":"MedReturn_Box","address":"6800 BRECKSVILLE RD, INDEPENDENCE OH 44131","postal":44131,"state":"OH","lat":41.37778,"lng":-81.64172,"googleMapsUrl":"https://www.google.com/maps/place/6800%20BRECKSVILLE%20RD,%20INDEPENDENCE%20OH%2044131"},{"name":"Madisonville Police Department","source":"MedReturn_Box","address":"99 East Center Street, Madisonville KY 42431","postal":42431,"state":"KY","lat":37.3284,"lng":-87.49714,"googleMapsUrl":"https://www.google.com/maps/place/99%20East%20Center%20Street,%20Madisonville%20KY%2042431"},{"name":"Cleveland Division of Police","source":"MedReturn_Box","address":"1300 Ontario Street, Cleveland OH 44113","postal":44113,"state":"OH","lat":41.50172,"lng":-81.69677,"googleMapsUrl":"https://www.google.com/maps/place/1300%20Ontario%20Street,%20Cleveland%20OH%2044113"},{"name":"Cuyahoga Falls Police Department","source":"MedReturn_Box","address":"2310 Second St, Cuyahoga Falls OH 44221","postal":44221,"state":"OH","lat":41.13873,"lng":-81.48402,"googleMapsUrl":"https://www.google.com/maps/place/2310%20Second%20St,%20Cuyahoga%20Falls%20OH%2044221"},{"name":"Parkersburg Police Department","source":"MedReturn_Box","address":"#1 Government Square, Parkersburg WV 26102","postal":26102,"state":"WV","lat":39.2637,"lng":-81.56244,"googleMapsUrl":"https://www.google.com/maps/place/#1%20Government%20Square,%20Parkersburg%20WV%2026102"},{"name":"LAUREL COUNTY SHERIFFS DEPT","source":"MedReturn_Box","address":"203 S BROAD ST, LONDON KY 40741","postal":40741,"state":"KY","lat":37.12743,"lng":-84.08376,"googleMapsUrl":"https://www.google.com/maps/place/203%20S%20BROAD%20ST,%20LONDON%20KY%2040741"},{"name":"LONDON CITY POLICE DEPARTMENT","source":"MedReturn_Box","address":"503 S MAIN ST, LONDON KY 40741","postal":40741,"state":"KY","lat":37.12631,"lng":-84.08178,"googleMapsUrl":"https://www.google.com/maps/place/503%20S%20MAIN%20ST,%20LONDON%20KY%2040741"},{"name":"CITY OF HURRICANE","source":"MedReturn_Box","address":"3255 TEAYS VALLEY RD, HURRICANE WV 25526","postal":25526,"state":"WV","lat":38.44596,"lng":-81.96711,"googleMapsUrl":"https://www.google.com/maps/place/3255%20TEAYS%20VALLEY%20RD,%20HURRICANE%20WV%2025526"},{"name":"PUTNAM COUNTY SHERIFF","source":"MedReturn_Box","address":"3389 WINFIELD ROAD, WINFIELD WV 25213","postal":25213,"state":"WV","lat":38.53331,"lng":-81.89176,"googleMapsUrl":"https://www.google.com/maps/place/3389%20WINFIELD%20ROAD,%20WINFIELD%20WV%2025213"},{"name":"TOWN OF WINFIELD","source":"MedReturn_Box","address":"3232 WINFIELD ROAD, WINFIELD WV 25213","postal":25213,"state":"WV","lat":38.53707,"lng":-81.88406,"googleMapsUrl":"https://www.google.com/maps/place/3232%20WINFIELD%20ROAD,%20WINFIELD%20WV%2025213"},{"name":"CUMBERLAND COUNTY E-911","source":"MedReturn_Box","address":"299 GLASGOW RD, BURKSVILLE KY 42717","postal":42717,"state":"KY","lat":36.79391,"lng":-85.36996,"googleMapsUrl":"https://www.google.com/maps/place/299%20GLASGOW%20RD,%20BURKSVILLE%20KY%2042717"},{"name":"NITRO POLICE DEPARTMENT","source":"MedReturn_Box","address":"2009 20TH STREET, NITRO WV 25143","postal":25143,"state":"WV","lat":38.42147,"lng":-81.84096,"googleMapsUrl":"https://www.google.com/maps/place/2009%2020TH%20STREET,%20NITRO%20WV%2025143"},{"name":"WIRT COUNTY SHERIFFS OFFICE","source":"MedReturn_Box","address":"100 COURT SQUARE, ELIZABETH WV 26143","postal":26143,"state":"WV","lat":39.06431,"lng":-81.39366,"googleMapsUrl":"https://www.google.com/maps/place/100%20COURT%20SQUARE,%20ELIZABETH%20WV%2026143"},{"name":"MONROE COUNTY SHERIFF'S OFFICE","source":"MedReturn_Box","address":"108 W COURT ST, WOODSFIELD OH 43793","postal":43793,"state":"OH","lat":39.76279,"lng":-81.11601,"googleMapsUrl":"https://www.google.com/maps/place/108%20W%20COURT%20ST,%20WOODSFIELD%20OH%2043793"},{"name":"CORBIN COMMUNITY COALITION","source":"MedReturn_Box","address":"805 SOUTH MAIN STREET, CORBIN KY 40701","postal":40701,"state":"KY","lat":36.942,"lng":-84.09485,"googleMapsUrl":"https://www.google.com/maps/place/805%20SOUTH%20MAIN%20STREET,%20CORBIN%20KY%2040701"},{"name":"Mentor-on-the-Lake Police Department","source":"MedReturn_Box","address":"5860 Andrews Rd, Mentor-on-the-Lake OH 44060","postal":44060,"state":"OH","lat":41.71226,"lng":-81.36196,"googleMapsUrl":"https://www.google.com/maps/place/5860%20Andrews%20Rd,%20Mentor-on-the-Lake%20OH%2044060"},{"name":"DUNBAR POLICE DEPARTMENT","source":"MedReturn_Box","address":"1227 LEONE LANE, DUNBAR WV 25064","postal":25064,"state":"WV","lat":38.36054,"lng":-81.74373,"googleMapsUrl":"https://www.google.com/maps/place/1227%20LEONE%20LANE,%20DUNBAR%20WV%2025064"},{"name":"SOUTH CHARLESTON POLICE DEPT","source":"MedReturn_Box","address":"235 FOURTH AVE, SOUTH CHARLESTON WV 25303","postal":25303,"state":"WV","lat":38.36613,"lng":-81.69557,"googleMapsUrl":"https://www.google.com/maps/place/235%20FOURTH%20AVE,%20SOUTH%20CHARLESTON%20WV%2025303"},{"name":"Charleston Police Department","source":"MedReturn_Box","address":"501 Virginia Street East, Charleston WV 25301","postal":25301,"state":"WV","lat":38.35079,"lng":-81.63849,"googleMapsUrl":"https://www.google.com/maps/place/501%20Virginia%20Street%20East,%20Charleston%20WV%2025301"},{"name":"BARBOURVILLE POLICE DEPT","source":"MedReturn_Box","address":"196 DANIEL BOONE DR, BARBOURVILLE KY 40906","postal":40906,"state":"KY","lat":36.86557,"lng":-83.88732,"googleMapsUrl":"https://www.google.com/maps/place/196%20DANIEL%20BOONE%20DR,%20BARBOURVILLE%20KY%2040906"},{"name":"PORTLAND POLICE DEPT","source":"MedReturn_Box","address":"433 NORTH BROADWAY, PORTLAND TN 37148","postal":37148,"state":"TN","lat":36.58771,"lng":-86.52063,"googleMapsUrl":"https://www.google.com/maps/place/433%20NORTH%20BROADWAY,%20PORTLAND%20TN%2037148"},{"name":"MARMET CITY HALL","source":"MedReturn_Box","address":"9403 MACCORKLE AVE, MARMET WV 25315","postal":25315,"state":"WV","lat":38.24582,"lng":-81.56738,"googleMapsUrl":"https://www.google.com/maps/place/9403%20MACCORKLE%20AVE,%20MARMET%20WV%2025315"},{"name":"WHEELING POLICE DEPARTMENT","source":"MedReturn_Box","address":"1500 CHAPLINE ST, WHEELING WV 26003","postal":26003,"state":"WV","lat":40.06475,"lng":-80.72051,"googleMapsUrl":"https://www.google.com/maps/place/1500%20CHAPLINE%20ST,%20WHEELING%20WV%2026003"},{"name":"BELL COUNTY SHERIFF'S OFFICE","source":"MedReturn_Box","address":"101 COURTHOUSE SQUARE, PINEVILLE KY 40977","postal":40977,"state":"KY","lat":36.76203,"lng":-83.69492,"googleMapsUrl":"https://www.google.com/maps/place/101%20COURTHOUSE%20SQUARE,%20PINEVILLE%20KY%2040977"},{"name":"TAG Law Enforcement Task Force","source":"MedReturn_Box","address":"640 North River Rd., Suite A, Warren OH 44483","postal":44483,"state":"OH","lat":41.26552,"lng":-80.81029,"googleMapsUrl":"https://www.google.com/maps/place/640%20North%20River%20Rd.,%20Suite%20A,%20Warren%20OH%2044483"},{"name":"HARLAN COUNTY SHERIFF DEPT","source":"MedReturn_Box","address":"210 E CENTRAL ST STE 202, HARLAN KY 40831","postal":40831,"state":"KY","lat":36.84704,"lng":-83.31999,"googleMapsUrl":"https://www.google.com/maps/place/210%20E%20CENTRAL%20ST%20STE%20202,%20HARLAN%20KY%2040831"},{"name":"CUMBERLAND POLICE DEPT","source":"MedReturn_Box","address":"414 W MAIN ST, CUMBERLAND KY 40823","postal":40823,"state":"KY","lat":36.97493,"lng":-82.99288,"googleMapsUrl":"https://www.google.com/maps/place/414%20W%20MAIN%20ST,%20CUMBERLAND%20KY%2040823"},{"name":"EVARTS POLICE DEPT","source":"MedReturn_Box","address":"101 HARLAN STREET, EVARTS KY 40828","postal":40828,"state":"KY","lat":36.86413,"lng":-83.19321,"googleMapsUrl":"https://www.google.com/maps/place/101%20HARLAN%20STREET,%20EVARTS%20KY%2040828"},{"name":"SUMNER COUNTY SHERIFF OFFICE","source":"MedReturn_Box","address":"117 W SMITH ST, GALLATIN TN 37066","postal":37066,"state":"TN","lat":36.38644,"lng":-86.44672,"googleMapsUrl":"https://www.google.com/maps/place/117%20W%20SMITH%20ST,%20GALLATIN%20TN%2037066"},{"name":"Springfield Township Police Dept","source":"MedReturn_Box","address":"3475 East South Range Road, New Springfield OH 44443","postal":44443,"state":"OH","lat":40.9426,"lng":-80.58642,"googleMapsUrl":"https://www.google.com/maps/place/3475%20East%20South%20Range%20Road,%20New%20Springfield%20OH%2044443"},{"name":"Poland Township Police","source":"MedReturn_Box","address":"3339 Dobbins Road, Poland OH 44514","postal":44514,"state":"OH","lat":41.00487,"lng":-80.58816,"googleMapsUrl":"https://www.google.com/maps/place/3339%20Dobbins%20Road,%20Poland%20OH%2044514"},{"name":"Struthers Police Department","source":"MedReturn_Box","address":"6 Elm Street, Struthers OH 44471","postal":44471,"state":"OH","lat":41.05613,"lng":-80.59151,"googleMapsUrl":"https://www.google.com/maps/place/6%20Elm%20Street,%20Struthers%20OH%2044471"},{"name":"MIDDLESBORO CITY POLICE DEPT","source":"MedReturn_Box","address":"150 N 20TH ST, MIDDLESBORO KY 40965","postal":40965,"state":"KY","lat":36.60868,"lng":-83.71441,"googleMapsUrl":"https://www.google.com/maps/place/150%20N%2020TH%20ST,%20MIDDLESBORO%20KY%2040965"},{"name":"Lowellville Police Department","source":"MedReturn_Box","address":"140 Liberty Street, Lowellville OH 44436","postal":44436,"state":"OH","lat":41.03689,"lng":-80.53471,"googleMapsUrl":"https://www.google.com/maps/place/140%20Liberty%20Street,%20Lowellville%20OH%2044436"},{"name":"Hubbard Township Police Department","source":"MedReturn_Box","address":"2600 Elmwood Drive, Hubbard OH 44425","postal":44425,"state":"OH","lat":41.17265,"lng":-80.55561,"googleMapsUrl":"https://www.google.com/maps/place/2600%20Elmwood%20Drive,%20Hubbard%20OH%2044425"},{"name":"TOWN OF OCEANA","source":"MedReturn_Box","address":"1285 COOK PARKWAY, OCEANA WV 24870","postal":24870,"state":"WV","lat":37.69225,"lng":-81.63279,"googleMapsUrl":"https://www.google.com/maps/place/1285%20COOK%20PARKWAY,%20OCEANA%20WV%2024870"},{"name":"CITY OF LAFOLLETTE","source":"MedReturn_Box","address":"207 SOUTH TENNESSEE AVE, LAFOLLETTE TN 37766","postal":37766,"state":"TN","lat":36.37946,"lng":-84.12159,"googleMapsUrl":"https://www.google.com/maps/place/207%20SOUTH%20TENNESSEE%20AVE,%20LAFOLLETTE%20TN%2037766"},{"name":"LaFollette Police Department","source":"MedReturn_Box","address":"215 South Tennessee Avenue, LaFollette TN 37766","postal":37766,"state":"TN","lat":36.37942,"lng":-84.12156,"googleMapsUrl":"https://www.google.com/maps/place/215%20South%20Tennessee%20Avenue,%20LaFollette%20TN%2037766"},{"name":"Lebanon Police Department","source":"MedReturn_Box","address":"406 Tennessee Blvd., Lebanon TN 37087","postal":37087,"state":"TN","lat":36.19998,"lng":-86.2831,"googleMapsUrl":"https://www.google.com/maps/place/406%20Tennessee%20Blvd.,%20Lebanon%20TN%2037087"},{"name":"ASHLAND CITY POLICE CEPT","source":"MedReturn_Box","address":"233 TN WALTZ PKWY, ASHLAND CITY TN 37015","postal":37015,"state":"TN","lat":36.26316,"lng":-87.06597,"googleMapsUrl":"https://www.google.com/maps/place/233%20TN%20WALTZ%20PKWY,%20ASHLAND%20CITY%20TN%2037015"},{"name":"FAYETTE COUNTY SHERIFF'S OFFICE","source":"MedReturn_Box","address":"100 NORTH COURT STREET, FAYETTEVILLE WV 25840","postal":25840,"state":"WV","lat":38.05284,"lng":-81.10378,"googleMapsUrl":"https://www.google.com/maps/place/100%20NORTH%20COURT%20STREET,%20FAYETTEVILLE%20WV%2025840"},{"name":"Murray Police Department","source":"MedReturn_Box","address":"407 Poplar, Murray KY 42071","postal":42071,"state":"KY","lat":36.60852,"lng":-88.30277,"googleMapsUrl":"https://www.google.com/maps/place/407%20Poplar,%20Murray%20KY%2042071"},{"name":"Belle Meade Police Department","source":"MedReturn_Box","address":"4705 Harding Pike, Nashville TN 37205","postal":37205,"state":"TN","lat":36.12078,"lng":-86.85273,"googleMapsUrl":"https://www.google.com/maps/place/4705%20Harding%20Pike,%20Nashville%20TN%2037205"},{"name":"Burns Police Department","source":"MedReturn_Box","address":"2715 Church Streeet, Burns TN 37029","postal":37029,"state":"TN","lat":36.05277,"lng":-87.31299,"googleMapsUrl":"https://www.google.com/maps/place/2715%20Church%20Streeet,%20Burns%20TN%2037029"},{"name":"Star City Police Department","source":"MedReturn_Box","address":"370 Broadway Avenue, Star City WV 26505","postal":26505,"state":"WV","lat":39.65769,"lng":-79.9865,"googleMapsUrl":"https://www.google.com/maps/place/370%20Broadway%20Avenue,%20Star%20City%20WV%2026505"},{"name":"SUMMERS COUNTY HOSPITAL","source":"MedReturn_Box","address":"1500 TERRACE ST, HINTON WV 25951","postal":25951,"state":"WV","lat":37.65076,"lng":-80.85898,"googleMapsUrl":"https://www.google.com/maps/place/1500%20TERRACE%20ST,%20HINTON%20WV%2025951"},{"name":"CITY OF BLUEFIELD","source":"MedReturn_Box","address":"200 ROGERS ST, BLUEFIELD WV 24701","postal":24701,"state":"WV","lat":37.26784,"lng":-81.22696,"googleMapsUrl":"https://www.google.com/maps/place/200%20ROGERS%20ST,%20BLUEFIELD%20WV%2024701"},{"name":"COMMUNITY CONNECTIONS","source":"MedReturn_Box","address":"215 SOUTH WALKER ST, PRINCETON WV 24740","postal":24740,"state":"WV","lat":37.36302,"lng":-81.10386,"googleMapsUrl":"https://www.google.com/maps/place/215%20SOUTH%20WALKER%20ST,%20PRINCETON%20WV%2024740"},{"name":"PRESTON COUNTY SHERIFF'S DEPT","source":"MedReturn_Box","address":"103 W MAIN ST, KINGWOOD WV 26537","postal":26537,"state":"WV","lat":39.47159,"lng":-79.6883,"googleMapsUrl":"https://www.google.com/maps/place/103%20W%20MAIN%20ST,%20KINGWOOD%20WV%2026537"},{"name":"Pocahontas County Sheriff's Department","source":"MedReturn_Box","address":"900 10th Avenue, Marlinton WV 24954","postal":24954,"state":"WV","lat":38.21812,"lng":-80.08861,"googleMapsUrl":"https://www.google.com/maps/place/900%2010th%20Avenue,%20Marlinton%20WV%2024954"},{"name":"PENDLETON COUNTY SHERIFFS DEPT","source":"MedReturn_Box","address":"100 SOUTH MAIN ST, FRANKLIN WV 26807","postal":26807,"state":"WV","lat":38.64176,"lng":-79.33162,"googleMapsUrl":"https://www.google.com/maps/place/100%20SOUTH%20MAIN%20ST,%20FRANKLIN%20WV%2026807"},{"name":"GILES COUNTY SHERIFF'S OFFICE","source":"MedReturn_Box","address":"200 Thomas Gatlin Dr, Pulaski TN 38478","postal":38478,"state":"TN","lat":35.21744,"lng":-87.05617,"googleMapsUrl":"https://www.google.com/maps/place/200%20Thomas%20Gatlin%20Dr,%20Pulaski%20TN%2038478"},{"name":"MINERAL COUNTY SHERIFFS OFFICE","source":"MedReturn_Box","address":"100 E STREET, KEYSER WV 26726","postal":26726,"state":"WV","lat":39.44312,"lng":-78.98684,"googleMapsUrl":"https://www.google.com/maps/place/100%20E%20STREET,%20KEYSER%20WV%2026726"},{"name":"MOOREFIELD CITY POLICE","source":"MedReturn_Box","address":"206 WINCHESTER AVE, MOOREFIELD WV 26836","postal":26836,"state":"WV","lat":39.06242,"lng":-78.96746,"googleMapsUrl":"https://www.google.com/maps/place/206%20WINCHESTER%20AVE,%20MOOREFIELD%20WV%2026836"},{"name":"HAMPSHIRE CO. HEALTH DEPT","source":"MedReturn_Box","address":"16189 NORTHWESTERN PIKE, AUGUSTA WV 26704","postal":26704,"state":"WV","lat":39.30003,"lng":-78.62608,"googleMapsUrl":"https://www.google.com/maps/place/16189%20NORTHWESTERN%20PIKE,%20AUGUSTA%20WV%2026704"},{"name":"WARDENSVILLE POLICE DEPARTMENT","source":"MedReturn_Box","address":"25 WARRIOR WAY, WARDENSVILLE WV 26851","postal":26851,"state":"WV","lat":39.07996,"lng":-78.59127,"googleMapsUrl":"https://www.google.com/maps/place/25%20WARRIOR%20WAY,%20WARDENSVILLE%20WV%2026851"},{"name":"SHEPHERDSTOWN POLICE DEPT","source":"MedReturn_Box","address":"104 N KING ST, SHEPHERDSTOWN WV 25443","postal":25443,"state":"WV","lat":39.43056,"lng":-77.80622,"googleMapsUrl":"https://www.google.com/maps/place/104%20N%20KING%20ST,%20SHEPHERDSTOWN%20WV%2025443"},{"name":"NORTHSIDE PHARMACY","source":"DEA","address":"2899 BELL STREET,  ZANESVILLE,  OH, 43701","postal":43701,"state":"OH","lat":39.97383,"lng":-82.01288,"googleMapsUrl":"https://www.google.com/maps/place/2899%20BELL%20STREET,%20%20ZANESVILLE,%20%20OH,%2043701"},{"name":"NORTHSIDE SOMERSET PHARMACY","source":"DEA","address":"110 WEST MAIN STREET,  SOMERSET,  OH, 43783","postal":43783,"state":"OH","lat":39.80668,"lng":-82.30019,"googleMapsUrl":"https://www.google.com/maps/place/110%20WEST%20MAIN%20STREET,%20%20SOMERSET,%20%20OH,%2043783"},{"name":"WILLIAMS BROS. HEALTH CARE PHARMACY, INC","source":"DEA","address":"104 E. BROADWAY ST.,  LOOGOOTEE,  IN, 47553","postal":47553,"state":"IN","lat":38.67533,"lng":-86.91283,"googleMapsUrl":"https://www.google.com/maps/place/104%20E.%20BROADWAY%20ST.,%20%20LOOGOOTEE,%20%20IN,%2047553"},{"name":"BRAY PHARMACY INC.","source":"DEA","address":"662 EAST MAIN ST.,  FRANKFORT,  KY, 40601","postal":40601,"state":"KY","lat":38.20298,"lng":-84.84794,"googleMapsUrl":"https://www.google.com/maps/place/662%20EAST%20MAIN%20ST.,%20%20FRANKFORT,%20%20KY,%2040601"},{"name":"NORTHSIDE CAMBRIDGE PHARMACY","source":"DEA","address":"1300 CLARK STREET,  SUITE 4,  CAMBRIDGE,  OH, 43725","postal":43725,"state":"OH","lat":40.03885,"lng":-81.5771,"googleMapsUrl":"https://www.google.com/maps/place/1300%20CLARK%20STREET,%20%20SUITE%204,%20%20CAMBRIDGE,%20%20OH,%2043725"},{"name":"DAVIS BROTHERS PHARMACY","source":"DEA","address":"615 N CHESTER ST,  NEW CUMBERLAND,  WV, 26047","postal":26047,"state":"WV","lat":40.49456,"lng":-80.60663,"googleMapsUrl":"https://www.google.com/maps/place/615%20N%20CHESTER%20ST,%20%20NEW%20CUMBERLAND,%20%20WV,%2026047"},{"name":"DAVIS BROTHERS PHARMACY - CHESTER","source":"DEA","address":"559 CAROLINA AVE STE B,  CHESTER,  WV, 26034","postal":26034,"state":"WV","lat":40.61434,"lng":-80.56065,"googleMapsUrl":"https://www.google.com/maps/place/559%20CAROLINA%20AVE%20STE%20B,%20%20CHESTER,%20%20WV,%2026034"},{"name":"WALGREEN CO.","source":"DEA","address":"12101 SHELBYVILLE ROAD,  MIDDLETOWN,  KY, 40243","postal":40243,"state":"KY","lat":38.24859,"lng":-85.53128,"googleMapsUrl":"https://www.google.com/maps/place/12101%20SHELBYVILLE%20ROAD,%20%20MIDDLETOWN,%20%20KY,%2040243"},{"name":"RxDrugDropBox","source":"RXDrugDrop","address":"951 Washington Street,  Dayton,  OH, 45408","postal":45408,"state":"OH","lat":39.74966,"lng":-84.20583,"googleMapsUrl":"https://www.google.com/maps/place/951%20Washington%20Street,%20%20Dayton,%20%20OH,%2045408"},{"name":"RxDrugDropBox","source":"RXDrugDrop","address":"103 Lane Parkway,  Shelbyville,  TN, 37160","postal":37160,"state":"TN","lat":35.48536,"lng":-86.46298,"googleMapsUrl":"https://www.google.com/maps/place/103%20Lane%20Parkway,%20%20Shelbyville,%20%20TN,%2037160"},{"name":"CROWDERS UPTOWN DRUG STORE","source":"DEA","address":"631 16TH STREET,  P.O. BOX 966,  BEDFORD,  IN, 47421","postal":47421,"state":"IN","lat":38.86108,"lng":-86.4799,"googleMapsUrl":"https://www.google.com/maps/place/631%2016TH%20STREET,%20%20P.O.%20BOX%20966,%20%20BEDFORD,%20%20IN,%2047421"},{"name":"RxDrugDropBox","source":"RXDrugDrop","address":"950 Locust Corner Rd,  Cincinnati,  OH, 45245","postal":45245,"state":"OH","lat":39.0246,"lng":-84.27839,"googleMapsUrl":"https://www.google.com/maps/place/950%20Locust%20Corner%20Rd,%20%20Cincinnati,%20%20OH,%2045245"},{"name":"RxDrugDropBox","source":"RXDrugDrop","address":"103 East Main Street,  Waverly,  TN, 37185","postal":37185,"state":"TN","lat":36.08318,"lng":-87.79387,"googleMapsUrl":"https://www.google.com/maps/place/103%20East%20Main%20Street,%20%20Waverly,%20%20TN,%2037185"},{"name":"LINCOLN PLAZA PHARMACY LLC","source":"DEA","address":"629 LINCOLN AVE,  P.O. BOX 966,  BEDFORD,  IN, 47421","postal":47421,"state":"IN","lat":38.87281,"lng":-86.49043,"googleMapsUrl":"https://www.google.com/maps/place/629%20LINCOLN%20AVE,%20%20P.O.%20BOX%20966,%20%20BEDFORD,%20%20IN,%2047421"},{"name":"WALGREEN CO.","source":"DEA","address":"5201 S. THIRD ST.,  LOUISVILLE,  KY, 40214","postal":40214,"state":"KY","lat":38.1722,"lng":-85.76787,"googleMapsUrl":"https://www.google.com/maps/place/5201%20S.%20THIRD%20ST.,%20%20LOUISVILLE,%20%20KY,%2040214"},{"name":"WALGREEN CO.","source":"DEA","address":"2021 HIKES LANE,  LOUISIVILLE,  KY, 40218","postal":40218,"state":"KY","lat":38.19547,"lng":-85.66529,"googleMapsUrl":"https://www.google.com/maps/place/2021%20HIKES%20LANE,%20%20LOUISIVILLE,%20%20KY,%2040218"},{"name":"RxDrugDropBox","source":"RXDrugDrop","address":"940 New Salem Highway,  Murfreesboro,  TN, 37130","postal":37130,"state":"TN","lat":35.83665,"lng":-86.40942,"googleMapsUrl":"https://www.google.com/maps/place/940%20New%20Salem%20Highway,%20%20Murfreesboro,%20%20TN,%2037130"},{"name":"RxDrugDropBox","source":"RXDrugDrop","address":"1044 Pleasant Grove Road,  Westmoreland,  TN, 37186","postal":37186,"state":"TN","lat":36.56203,"lng":-86.24667,"googleMapsUrl":"https://www.google.com/maps/place/1044%20Pleasant%20Grove%20Road,%20%20Westmoreland,%20%20TN,%2037186"},{"name":"RxDrugDropBox","source":"RXDrugDrop","address":"104 East Main Street,  Smithville,  TN, 37166","postal":37166,"state":"TN","lat":35.96082,"lng":-85.81259,"googleMapsUrl":"https://www.google.com/maps/place/104%20East%20Main%20Street,%20%20Smithville,%20%20TN,%2037166"},{"name":"RxDrugDropBox","source":"RXDrugDrop","address":"99 East Center Street,  Madisonville,  KY, 42431","postal":42431,"state":"KY","lat":37.32799,"lng":-87.49701,"googleMapsUrl":"https://www.google.com/maps/place/99%20East%20Center%20Street,%20%20Madisonville,%20%20KY,%2042431"},{"name":"RxDrugDropBox","source":"RXDrugDrop","address":"10500 Reading Rd,  Cincinnati,  OH, 45241","postal":45241,"state":"OH","lat":39.25456,"lng":-84.42233,"googleMapsUrl":"https://www.google.com/maps/place/10500%20Reading%20Rd,%20%20Cincinnati,%20%20OH,%2045241"},{"name":"RxDrugDropBox","source":"RXDrugDrop","address":"88 First Street,  Lexington,  TN, 38351","postal":38351,"state":"TN","lat":35.64783,"lng":-88.39319,"googleMapsUrl":"https://www.google.com/maps/place/88%20First%20Street,%20%20Lexington,%20%20TN,%2038351"},{"name":"RxDrugDropBox","source":"RXDrugDrop","address":"105 South Main Street,  Goodlettsville,  TN, 37072","postal":37072,"state":"TN","lat":36.3199,"lng":-86.71319,"googleMapsUrl":"https://www.google.com/maps/place/105%20South%20Main%20Street,%20%20Goodlettsville,%20%20TN,%2037072"},{"name":"RxDrugDropBox","source":"RXDrugDrop","address":"207 N. First Street,  Pierceton,  IN, 46562","postal":46562,"state":"IN","lat":41.20082,"lng":-85.70526,"googleMapsUrl":"https://www.google.com/maps/place/207%20N.%20First%20Street,%20%20Pierceton,%20%20IN,%2046562"},{"name":"RxDrugDropBox","source":"RXDrugDrop","address":"204 Red Road,  McMinnville,  TN, 37111","postal":37111,"state":"TN","lat":35.69365,"lng":-85.7617,"googleMapsUrl":"https://www.google.com/maps/place/204%20Red%20Road,%20%20McMinnville,%20%20TN,%2037111"},{"name":"RxDrugDropBox","source":"RXDrugDrop","address":"202 South Main Street,  Dickson,  TN, 37055","postal":37055,"state":"TN","lat":36.07473,"lng":-87.39053,"googleMapsUrl":"https://www.google.com/maps/place/202%20South%20Main%20Street,%20%20Dickson,%20%20TN,%2037055"},{"name":"RxDrugDropBox","source":"RXDrugDrop","address":"201 West Grundy Street,  Tullahoma,  TN, 37388","postal":37388,"state":"TN","lat":35.36251,"lng":-86.21222,"googleMapsUrl":"https://www.google.com/maps/place/201%20West%20Grundy%20Street,%20%20Tullahoma,%20%20TN,%2037388"},{"name":"RxDrugDropBox","source":"RXDrugDrop","address":"936 E. Trinity Lane,  Nashville,  TN, 37207","postal":37207,"state":"TN","lat":36.20455,"lng":-86.74815,"googleMapsUrl":"https://www.google.com/maps/place/936%20E.%20Trinity%20Lane,%20%20Nashville,%20%20TN,%2037207"},{"name":"RxDrugDropBox","source":"RXDrugDrop","address":"934 Neeb Road,  Cincinnati,  OH, 45233","postal":45233,"state":"OH","lat":39.11261,"lng":-84.63576,"googleMapsUrl":"https://www.google.com/maps/place/934%20Neeb%20Road,%20%20Cincinnati,%20%20OH,%2045233"},{"name":"RxDrugDropBox","source":"RXDrugDrop","address":"201 W. Main Street,  Mentone,  IN, 46539","postal":46539,"state":"IN","lat":41.17334,"lng":-86.03783,"googleMapsUrl":"https://www.google.com/maps/place/201%20W.%20Main%20Street,%20%20Mentone,%20%20IN,%2046539"},{"name":"RxDrugDropBox","source":"RXDrugDrop","address":"911 Kentucky Street,  Bowling Green,  KY, 42104","postal":42104,"state":"KY","lat":36.99577,"lng":-86.44386,"googleMapsUrl":"https://www.google.com/maps/place/911%20Kentucky%20Street,%20%20Bowling%20Green,%20%20KY,%2042104"},{"name":"RxDrugDropBox","source":"RXDrugDrop","address":"201 S Broadway Street,  Glasgow,  KY, 42141","postal":42141,"state":"KY","lat":36.9945,"lng":-85.91139,"googleMapsUrl":"https://www.google.com/maps/place/201%20S%20Broadway%20Street,%20%20Glasgow,%20%20KY,%2042141"},{"name":"WALGREEN CO.","source":"DEA","address":"701 N CABLE ROAD,  LIMA,  OH, 45805","postal":45805,"state":"OH","lat":40.74854,"lng":-84.14702,"googleMapsUrl":"https://www.google.com/maps/place/701%20N%20CABLE%20ROAD,%20%20LIMA,%20%20OH,%2045805"},{"name":"DUSINI DRUG INC","source":"DEA","address":"315 EAST HIGH AVENUE,  NEW PHILADELPHIA,  OH, 44663","postal":44663,"state":"OH","lat":40.4888,"lng":-81.44058,"googleMapsUrl":"https://www.google.com/maps/place/315%20EAST%20HIGH%20AVENUE,%20%20NEW%20PHILADELPHIA,%20%20OH,%2044663"},{"name":"GENOA A QOL HEALTHCARE COMPANY LLC","source":"DEA","address":"1445 W. MAIN STREET,  NEWARK,  OH, 43055","postal":43055,"state":"OH","lat":40.04581,"lng":-82.45498,"googleMapsUrl":"https://www.google.com/maps/place/1445%20W.%20MAIN%20STREET,%20%20NEWARK,%20%20OH,%2043055"},{"name":"WALGREEN CO.","source":"DEA","address":"655 WASHINGTON ST. W,  CHARLESTON,  WV, 25302","postal":25302,"state":"WV","lat":38.36498,"lng":-81.6451,"googleMapsUrl":"https://www.google.com/maps/place/655%20WASHINGTON%20ST.%20W,%20%20CHARLESTON,%20%20WV,%2025302"},{"name":"BLUEGRASS PHARMACIES","source":"DEA","address":"1128 N. MAIN ST.,  MADISONVILLE,  KY, 42431","postal":42431,"state":"KY","lat":37.34544,"lng":-87.49814,"googleMapsUrl":"https://www.google.com/maps/place/1128%20N.%20MAIN%20ST.,%20%20MADISONVILLE,%20%20KY,%2042431"},{"name":"KINES FAMILY PHARMACY INC.","source":"DEA","address":"6097 SISSONVILLE DRIVE,  CHARLESTON,  WV, 25312","postal":25312,"state":"WV","lat":38.46249,"lng":-81.66513,"googleMapsUrl":"https://www.google.com/maps/place/6097%20SISSONVILLE%20DRIVE,%20%20CHARLESTON,%20%20WV,%2025312"},{"name":"COMPASS PHARMACY","source":"DEA","address":"1634 11TH STREET,  PORTSMOUTH,  OH, 45662","postal":45662,"state":"OH","lat":38.73888,"lng":-82.98201,"googleMapsUrl":"https://www.google.com/maps/place/1634%2011TH%20STREET,%20%20PORTSMOUTH,%20%20OH,%2045662"},{"name":"WALGREEN CO.","source":"DEA","address":"6201 STELLHORN ROAD,  FT WAYNE,  IN, 46815","postal":46815,"state":"IN","lat":41.12031,"lng":-85.0631,"googleMapsUrl":"https://www.google.com/maps/place/6201%20STELLHORN%20ROAD,%20%20FT%20WAYNE,%20%20IN,%2046815"},{"name":"GENOA A QOL HEALTHCARE COMPANY LLC","source":"DEA","address":"901 WASHINGTON STREET,  ROOM 135,  PORTSMOUTH,  OH, 45662","postal":45662,"state":"OH","lat":38.73747,"lng":-82.99849,"googleMapsUrl":"https://www.google.com/maps/place/901%20WASHINGTON%20STREET,%20%20ROOM%20135,%20%20PORTSMOUTH,%20%20OH,%2045662"},{"name":"WALGREEN CO.","source":"DEA","address":"2720 W JACKSON,  MUNCIE,  IN, 47303","postal":47303,"state":"IN","lat":40.19298,"lng":-85.41821,"googleMapsUrl":"https://www.google.com/maps/place/2720%20W%20JACKSON,%20%20MUNCIE,%20%20IN,%2047303"},{"name":"PHARMACY NETWORK SERVICES","source":"DEA","address":"527 N. STATE OF FRANKLIN RD,  SUITE 1,  JOHNSON CITY,  TN, 37604","postal":37604,"state":"TN","lat":36.31496,"lng":-82.38868,"googleMapsUrl":"https://www.google.com/maps/place/527%20N.%20STATE%20OF%20FRANKLIN%20RD,%20%20SUITE%201,%20%20JOHNSON%20CITY,%20%20TN,%2037604"},{"name":null,"source":null,"address":"7951 TN, 22,  Dresden,  TN, 38225","postal":38225,"state":"TN","lat":36.27572,"lng":-88.69016,"googleMapsUrl":"https://www.google.com/maps/place/7951%20TN,%2022,%20%20Dresden,%20%20TN,%2038225"},{"name":"WALGREEN CO.","source":"DEA","address":"925 SOUTH GREEN RIVER ROAD,  EVANSVILLE,  IN, 47715","postal":47715,"state":"IN","lat":37.96304,"lng":-87.49267,"googleMapsUrl":"https://www.google.com/maps/place/925%20SOUTH%20GREEN%20RIVER%20ROAD,%20%20EVANSVILLE,%20%20IN,%2047715"},{"name":"RxDrugDropBox","source":"RXDrugDrop","address":"79 College Street,  Munford,  TN, 38058","postal":38058,"state":"TN","lat":35.4469,"lng":-89.81371,"googleMapsUrl":"https://www.google.com/maps/place/79%20College%20Street,%20%20Munford,%20%20TN,%2038058"},{"name":"WALGREEN CO.","source":"DEA","address":"1650 E ANDREW JOHNSON HWY,  GREENEVILLE,  TN, 37745","postal":37745,"state":"TN","lat":36.17698,"lng":-82.79416,"googleMapsUrl":"https://www.google.com/maps/place/1650%20E%20ANDREW%20JOHNSON%20HWY,%20%20GREENEVILLE,%20%20TN,%2037745"},{"name":"IU HEALTH BALL MEMORIAL HOSPITAL, INC.","source":"DEA","address":"5501 W. BETHEL AVE,  MUNCIE,  IN, 47304","postal":47304,"state":"IN","lat":40.22536,"lng":-85.44979,"googleMapsUrl":"https://www.google.com/maps/place/5501%20W.%20BETHEL%20AVE,%20%20MUNCIE,%20%20IN,%2047304"},{"name":"ST. VINCENT PHARMACY MOB","source":"DEA","address":"801 ST. MARY'S DRIVE,  EVANSVILLE,  IN, 47714","postal":47714,"state":"IN","lat":37.96686,"lng":-87.50556,"googleMapsUrl":"https://www.google.com/maps/place/801%20ST.%20MARY'S%20DRIVE,%20%20EVANSVILLE,%20%20IN,%2047714"},{"name":"RxDrugDropBox","source":"RXDrugDrop","address":"8100 Ewing Blvd,  Florence,  KY, 41042","postal":41042,"state":"KY","lat":38.99923,"lng":-84.64207,"googleMapsUrl":"https://www.google.com/maps/place/8100%20Ewing%20Blvd,%20%20Florence,%20%20KY,%2041042"},{"name":"IU HEALTH BALL MEMORIAL HOSPITAL, INC.","source":"DEA","address":"1420 S. PILGRIM BLVD.,  YORKTOWN,  IN, 47396","postal":47396,"state":"IN","lat":40.18071,"lng":-85.47344,"googleMapsUrl":"https://www.google.com/maps/place/1420%20S.%20PILGRIM%20BLVD.,%20%20YORKTOWN,%20%20IN,%2047396"},{"name":"EMORY CENTRE PHARMACY","source":"DEA","address":"527 EMORY DRIVE,  OWENSBORO,  KY, 42301","postal":42301,"state":"KY","lat":37.74805,"lng":-87.11507,"googleMapsUrl":"https://www.google.com/maps/place/527%20EMORY%20DRIVE,%20%20OWENSBORO,%20%20KY,%2042301"},{"name":"RxDrugDropBox","source":"RXDrugDrop","address":"106 S Main St reet,  Edmonton,  KY, 42129","postal":42129,"state":"KY","lat":36.9795,"lng":-85.61227,"googleMapsUrl":"https://www.google.com/maps/place/106%20S%20Main%20St%20reet,%20%20Edmonton,%20%20KY,%2042129"},{"name":"METHODIST HOSPITAL PHARMACY","source":"DEA","address":"1305 N ELM ST,  HENDERSON,  KY, 42420","postal":42420,"state":"KY","lat":37.85278,"lng":-87.58191,"googleMapsUrl":"https://www.google.com/maps/place/1305%20N%20ELM%20ST,%20%20HENDERSON,%20%20KY,%2042420"},{"name":"RxDrugDropBox","source":"RXDrugDrop","address":"8774 Constable Dr,  Alexandria,  KY, 41001","postal":41001,"state":"KY","lat":38.94921,"lng":-84.39136,"googleMapsUrl":"https://www.google.com/maps/place/8774%20Constable%20Dr,%20%20Alexandria,%20%20KY,%2041001"},{"name":"RxDrugDropBox","source":"RXDrugDrop","address":"10900 Reading Rd,  Sharonville,  OH, 45241","postal":45241,"state":"OH","lat":39.2654,"lng":-84.41456,"googleMapsUrl":"https://www.google.com/maps/place/10900%20Reading%20Rd,%20%20Sharonville,%20%20OH,%2045241"},{"name":"HALL FAMILY PHARMACY","source":"DEA","address":"433 WEST CENTRAL AVENUE,  JAMESTOWN,  TN, 38556","postal":38556,"state":"TN","lat":36.43127,"lng":-84.9428,"googleMapsUrl":"https://www.google.com/maps/place/433%20WEST%20CENTRAL%20AVENUE,%20%20JAMESTOWN,%20%20TN,%2038556"},{"name":"GARST RX","source":"DEA","address":"325 S MAIN ST,  FORTVILLE,  IN, 46040","postal":46040,"state":"IN","lat":39.93207,"lng":-85.84804,"googleMapsUrl":"https://www.google.com/maps/place/325%20S%20MAIN%20ST,%20%20FORTVILLE,%20%20IN,%2046040"},{"name":"RxDrugDropBox","source":"RXDrugDrop","address":"8188 S. St Rt 48,  Maineville,  OH, 45039","postal":45039,"state":"OH","lat":39.31447,"lng":-84.22058,"googleMapsUrl":"https://www.google.com/maps/place/8188%20S.%20St%20Rt%2048,%20%20Maineville,%20%20OH,%2045039"},{"name":"MERCY HEALTH - MARCUM & WALLACE HOSPITAL LLC","source":"DEA","address":"60 MERCY COURT,  IRVINE,  KY, 40336","postal":40336,"state":"KY","lat":37.70588,"lng":-83.97778,"googleMapsUrl":"https://www.google.com/maps/place/60%20MERCY%20COURT,%20%20IRVINE,%20%20KY,%2040336"},{"name":"WILSON PHARMACY","source":"DEA","address":"1657 EAST STONE DRIVE,  SUITE A,  KINGSPORT,  TN, 37660","postal":37660,"state":"TN","lat":36.54788,"lng":-82.51893,"googleMapsUrl":"https://www.google.com/maps/place/1657%20EAST%20STONE%20DRIVE,%20%20SUITE%20A,%20%20KINGSPORT,%20%20TN,%2037660"},{"name":"IU HEALTH BALL MEMORIAL HOSPITAL, INC","source":"DEA","address":"3813 S. MADISON ST.,  MUNCIE,  IN, 47302","postal":47302,"state":"IN","lat":40.15901,"lng":-85.38175,"googleMapsUrl":"https://www.google.com/maps/place/3813%20S.%20MADISON%20ST.,%20%20MUNCIE,%20%20IN,%2047302"},{"name":"GOOD SAMARITAN HOSPITAL","source":"DEA","address":"520 S 7TH ST,  VINCENNES,  IN, 47591","postal":47591,"state":"IN","lat":38.67397,"lng":-87.53217,"googleMapsUrl":"https://www.google.com/maps/place/520%20S%207TH%20ST,%20%20VINCENNES,%20%20IN,%2047591"},{"name":"IU HEALTH BALL MEMORIAL HOSPITAL, INC.","source":"DEA","address":"2401 W. UNIVERSITY AVE.,  OMP 1635,  MUNCIE,  IN, 47303","postal":47303,"state":"IN","lat":40.1976,"lng":-85.41418,"googleMapsUrl":"https://www.google.com/maps/place/2401%20W.%20UNIVERSITY%20AVE.,%20%20OMP%201635,%20%20MUNCIE,%20%20IN,%2047303"},{"name":"RxDrugDropBox","source":"RXDrugDrop","address":"1091 Hospital Road,  Franklin,  IN, 46131","postal":46131,"state":"IN","lat":39.47768,"lng":-86.08328,"googleMapsUrl":"https://www.google.com/maps/place/1091%20Hospital%20Road,%20%20Franklin,%20%20IN,%2046131"},{"name":"RxDrugDropBox","source":"RXDrugDrop","address":"111 West Main Street,  Hohenwald,  TN, 38462","postal":38462,"state":"TN","lat":35.54808,"lng":-87.55376,"googleMapsUrl":"https://www.google.com/maps/place/111%20West%20Main%20Street,%20%20Hohenwald,%20%20TN,%2038462"},{"name":"RxDrugDropBox","source":"RXDrugDrop","address":"1106 Amsterdam Rd,  Park Hills,  KY, 41011","postal":41011,"state":"KY","lat":39.07135,"lng":-84.53295,"googleMapsUrl":"https://www.google.com/maps/place/1106%20Amsterdam%20Rd,%20%20Park%20Hills,%20%20KY,%2041011"},{"name":"IU HEALTH BALL MEMORIAL HOSPITAL, INC.","source":"DEA","address":"400 PILGRIM BLVD.,  HARTFORD CITY,  IN, 47348","postal":47348,"state":"IN","lat":40.46893,"lng":-85.37196,"googleMapsUrl":"https://www.google.com/maps/place/400%20PILGRIM%20BLVD.,%20%20HARTFORD%20CITY,%20%20IN,%2047348"},{"name":"INDIANA UNIVERSITY HEALTH, INC","source":"DEA","address":"13100 E 136TH STREET,  SUITE 1000,  FISHERS,  IN, 46037","postal":46037,"state":"IN","lat":39.98783,"lng":-85.92868,"googleMapsUrl":"https://www.google.com/maps/place/13100%20E%20136TH%20STREET,%20%20SUITE%201000,%20%20FISHERS,%20%20IN,%2046037"},{"name":"RxDrugDropBox","source":"RXDrugDrop","address":"112 W. 1st St,  Hopkinsville,  KY, 42240","postal":42240,"state":"KY","lat":36.87041,"lng":-87.4867,"googleMapsUrl":"https://www.google.com/maps/place/112%20W.%201st%20St,%20%20Hopkinsville,%20%20KY,%2042240"},{"name":"RxDrugDropBox","source":"RXDrugDrop","address":"73 N Main St.,  West Alexandria,  OH, 45381","postal":45381,"state":"OH","lat":39.75009,"lng":-84.53251,"googleMapsUrl":"https://www.google.com/maps/place/73%20N%20Main%20St.,%20%20West%20Alexandria,%20%20OH,%2045381"},{"name":"WALGREEN CO.","source":"DEA","address":"6202 WEST JEFFERSON BLVD,  FT WAYNE,  IN, 46804","postal":46804,"state":"IN","lat":41.05547,"lng":-85.22547,"googleMapsUrl":"https://www.google.com/maps/place/6202%20WEST%20JEFFERSON%20BLVD,%20%20FT%20WAYNE,%20%20IN,%2046804"},{"name":"WALGREEN CO.","source":"DEA","address":"897 CHESTNUT RIDGE RD,  MORGANTOWN,  WV, 26505","postal":26505,"state":"WV","lat":39.65804,"lng":-79.95466,"googleMapsUrl":"https://www.google.com/maps/place/897%20CHESTNUT%20RIDGE%20RD,%20%20MORGANTOWN,%20%20WV,%2026505"},{"name":"PCA-CORRECTIONS, LLC DBA CHOICE PHARMACY","source":"DEA","address":"4014 VENTURE COURT,  COLUMBUS,  OH, 43228","postal":43228,"state":"OH","lat":40.00046,"lng":-83.11513,"googleMapsUrl":"https://www.google.com/maps/place/4014%20VENTURE%20COURT,%20%20COLUMBUS,%20%20OH,%2043228"},{"name":"GENOA A QOL HEALTHCARE COMPANY LLC","source":"DEA","address":"525 METRO PLACE N,  STE 150,  DUBLIN,  OH, 43017","postal":43017,"state":"OH","lat":40.09621,"lng":-83.13056,"googleMapsUrl":"https://www.google.com/maps/place/525%20METRO%20PLACE%20N,%20%20STE%20150,%20%20DUBLIN,%20%20OH,%2043017"},{"name":"WALGREEN CO.","source":"DEA","address":"101 FORBES DR.,  MARTINSBURG,  WV, 25404","postal":25404,"state":"WV","lat":39.47445,"lng":-77.95834,"googleMapsUrl":"https://www.google.com/maps/place/101%20FORBES%20DR.,%20%20MARTINSBURG,%20%20WV,%2025404"},{"name":"THE OHIO STATE UNIVERSITY OUTPATIENT PHARMACY - J","source":"DEA","address":"460 W 10TH AVE,  ROOM L012,  COLUMBUS,  OH, 43210","postal":43210,"state":"OH","lat":39.99441,"lng":-83.01511,"googleMapsUrl":"https://www.google.com/maps/place/460%20W%2010TH%20AVE,%20%20ROOM%20L012,%20%20COLUMBUS,%20%20OH,%2043210"},{"name":"WALGREEN CO.","source":"DEA","address":"2150 E DUBLIN GRANVILLE ROAD,  COLUMBUS,  OH, 43229","postal":43229,"state":"OH","lat":40.08646,"lng":-82.95947,"googleMapsUrl":"https://www.google.com/maps/place/2150%20E%20DUBLIN%20GRANVILLE%20ROAD,%20%20COLUMBUS,%20%20OH,%2043229"},{"name":"WALGREEN CO.","source":"DEA","address":"4605 MONTGOMERY ROAD,  NORWOOD,  OH, 45212","postal":45212,"state":"OH","lat":39.16065,"lng":-84.45617,"googleMapsUrl":"https://www.google.com/maps/place/4605%20MONTGOMERY%20ROAD,%20%20NORWOOD,%20%20OH,%2045212"},{"name":"RxDrugDropBox","source":"RXDrugDrop","address":"10 North First St.,  Miamisburg,  OH, 45342","postal":45342,"state":"OH","lat":39.64191,"lng":-84.28777,"googleMapsUrl":"https://www.google.com/maps/place/10%20North%20First%20St.,%20%20Miamisburg,%20%20OH,%2045342"},{"name":"WALGREEN CO.","source":"DEA","address":"859 E MAIN ST,  LANCASTER,  OH, 43130","postal":43130,"state":"OH","lat":39.7135,"lng":-82.58442,"googleMapsUrl":"https://www.google.com/maps/place/859%20E%20MAIN%20ST,%20%20LANCASTER,%20%20OH,%2043130"},{"name":"GENOA A QOL HEALTHCARE COMPANY LLC","source":"DEA","address":"1501 MADISON ROAD,  3RD FL,  WALNUT HILLS,  OH, 45206","postal":45206,"state":"OH","lat":39.13011,"lng":-84.47974,"googleMapsUrl":"https://www.google.com/maps/place/1501%20MADISON%20ROAD,%20%203RD%20FL,%20%20WALNUT%20HILLS,%20%20OH,%2045206"},{"name":"RxDrugDropBox","source":"RXDrugDrop","address":"10 East Broad Street,  Cookeville,  TN, 38501","postal":38501,"state":"TN","lat":36.16341,"lng":-85.50555,"googleMapsUrl":"https://www.google.com/maps/place/10%20East%20Broad%20Street,%20%20Cookeville,%20%20TN,%2038501"},{"name":"RxDrugDropBox","source":"RXDrugDrop","address":"719 Rogers Rd,  Villa Hills,  KY, 41017","postal":41017,"state":"KY","lat":39.05337,"lng":-84.59697,"googleMapsUrl":"https://www.google.com/maps/place/719%20Rogers%20Rd,%20%20Villa%20Hills,%20%20KY,%2041017"},{"name":"THE JEWISH HOSPITAL","source":"DEA","address":"4777 E. GALBRAITH ROAD,  CINCINNATI,  OH, 45236","postal":45236,"state":"OH","lat":39.20691,"lng":-84.38169,"googleMapsUrl":"https://www.google.com/maps/place/4777%20E.%20GALBRAITH%20ROAD,%20%20CINCINNATI,%20%20OH,%2045236"},{"name":"RxDrugDropBox","source":"RXDrugDrop","address":"711 East Commercial Avenue,  Monterey,  TN, 38574","postal":38574,"state":"TN","lat":36.14203,"lng":-85.2616,"googleMapsUrl":"https://www.google.com/maps/place/711%20East%20Commercial%20Avenue,%20%20Monterey,%20%20TN,%2038574"},{"name":"MULLANEY'S LTC PHARMACY","source":"DEA","address":"6096 MONTGOMERY RD SUITE B,  CINCINNATI,  OH, 45213","postal":45213,"state":"OH","lat":39.18211,"lng":-84.42746,"googleMapsUrl":"https://www.google.com/maps/place/6096%20MONTGOMERY%20RD%20SUITE%20B,%20%20CINCINNATI,%20%20OH,%2045213"},{"name":"EQUITAS HEALTH PHARMACY","source":"DEA","address":"1033 N. HIGH ST.,  COLUMBUS,  OH, 43201","postal":43201,"state":"OH","lat":39.98348,"lng":-83.00481,"googleMapsUrl":"https://www.google.com/maps/place/1033%20N.%20HIGH%20ST.,%20%20COLUMBUS,%20%20OH,%2043201"},{"name":"RxDrugDropBox","source":"RXDrugDrop","address":"222 E. 9th Street,  Owensboro, KY, 42303","postal":42303,"state":"KY","lat":37.76754,"lng":-87.10906,"googleMapsUrl":"https://www.google.com/maps/place/222%20E.%209th%20Street,%20%20Owensboro,%20KY,%2042303"},{"name":"RxDrugDropBox","source":"RXDrugDrop","address":"707 North Main Street,  Columbia,  TN, 38401","postal":38401,"state":"TN","lat":35.61608,"lng":-87.03368,"googleMapsUrl":"https://www.google.com/maps/place/707%20North%20Main%20Street,%20%20Columbia,%20%20TN,%2038401"},{"name":"RxDrugDropBox","source":"RXDrugDrop","address":"2191 E. Fort Wayne Street,  Warsaw,  IN, 46580","postal":46580,"state":"IN","lat":41.2399,"lng":-85.82643,"googleMapsUrl":"https://www.google.com/maps/place/2191%20E.%20Fort%20Wayne%20Street,%20%20Warsaw,%20%20IN,%2046580"},{"name":"AMC OHIO LLC, DBA EQUITAS HEALTH PHARMACY #3","source":"DEA","address":"750 E LONG ST,  SUITE 3100,  COLUMBUS,  OH, 43203","postal":43203,"state":"OH","lat":39.96724,"lng":-82.98135,"googleMapsUrl":"https://www.google.com/maps/place/750%20E%20LONG%20ST,%20%20SUITE%203100,%20%20COLUMBUS,%20%20OH,%2043203"},{"name":"RxDrugDropBox","source":"RXDrugDrop","address":"2171 N. McKinley Ave,  Rensselaer,  IN, 47978","postal":47978,"state":"IN","lat":40.9603,"lng":-87.15134,"googleMapsUrl":"https://www.google.com/maps/place/2171%20N.%20McKinley%20Ave,%20%20Rensselaer,%20%20IN,%2047978"},{"name":"RxDrugDropBox","source":"RXDrugDrop","address":"705 Hanover Street,  Hamilton,  OH, 45011","postal":45011,"state":"OH","lat":39.38989,"lng":-84.55573,"googleMapsUrl":"https://www.google.com/maps/place/705%20Hanover%20Street,%20%20Hamilton,%20%20OH,%2045011"},{"name":"AHF PHARMACY","source":"DEA","address":"1230 N. HIGH STREET,  COLUMBUS,  OH, 43201","postal":43201,"state":"OH","lat":39.98753,"lng":-83.00559,"googleMapsUrl":"https://www.google.com/maps/place/1230%20N.%20HIGH%20STREET,%20%20COLUMBUS,%20%20OH,%2043201"},{"name":"CLERMONT MERCY HOSPITAL","source":"DEA","address":"3000 HOSPITAL DRIVE,  BATAVIA,  OH, 45103","postal":45103,"state":"OH","lat":39.08086,"lng":-84.14742,"googleMapsUrl":"https://www.google.com/maps/place/3000%20HOSPITAL%20DRIVE,%20%20BATAVIA,%20%20OH,%2045103"},{"name":"RxDrugDropBox","source":"RXDrugDrop","address":"217 South Main St,  Marion,  KY, 42064","postal":42064,"state":"KY","lat":37.33479,"lng":-88.08107,"googleMapsUrl":"https://www.google.com/maps/place/217%20South%20Main%20St,%20%20Marion,%20%20KY,%2042064"},{"name":"RxDrugDropBox","source":"RXDrugDrop","address":"7029 Telecom Drive,  Milan,  TN, 38358","postal":38358,"state":"TN","lat":35.90225,"lng":-88.75714,"googleMapsUrl":"https://www.google.com/maps/place/7029%20Telecom%20Drive,%20%20Milan,%20%20TN,%2038358"},{"name":"WILSON PHARMACY, INC.","source":"DEA","address":"400 N STATE OF FRANKLIN RD,  JOHNSON CITY,  TN, 37604","postal":37604,"state":"TN","lat":36.30867,"lng":-82.38654,"googleMapsUrl":"https://www.google.com/maps/place/400%20N%20STATE%20OF%20FRANKLIN%20RD,%20%20JOHNSON%20CITY,%20%20TN,%2037604"},{"name":"RxDrugDropBox","source":"RXDrugDrop","address":"701 W. Sample St.,  South Bend, IN, 46601","postal":46601,"state":"IN","lat":41.66504,"lng":-86.2598,"googleMapsUrl":"https://www.google.com/maps/place/701%20W.%20Sample%20St.,%20%20South%20Bend,%20IN,%2046601"},{"name":"RxDrugDropBox","source":"RXDrugDrop","address":"6757 Goshen Road,  Goshen,  OH, 45122","postal":45122,"state":"OH","lat":39.23051,"lng":-84.15805,"googleMapsUrl":"https://www.google.com/maps/place/6757%20Goshen%20Road,%20%20Goshen,%20%20OH,%2045122"},{"name":"RxDrugDropBox","source":"RXDrugDrop","address":"100 Terri Street,  Campbellsville,  KY, 42718","postal":42718,"state":"KY","lat":37.34085,"lng":-85.34594,"googleMapsUrl":"https://www.google.com/maps/place/100%20Terri%20Street,%20%20Campbellsville,%20%20KY,%2042718"},{"name":"RxDrugDropBox","source":"RXDrugDrop","address":"2231 26th Avenue North,  Nashville,  TN, 37208","postal":37208,"state":"TN","lat":36.18877,"lng":-86.81822,"googleMapsUrl":"https://www.google.com/maps/place/2231%2026th%20Avenue%20North,%20%20Nashville,%20%20TN,%2037208"},{"name":"RxDrugDropBox","source":"RXDrugDrop","address":"675 Highway 51 South,  Ripley,  TN, 37063","postal":37063,"state":"TN","lat":35.74591,"lng":-89.55413,"googleMapsUrl":"https://www.google.com/maps/place/675%20Highway%2051%20South,%20%20Ripley,%20%20TN,%2037063"},{"name":"RxDrugDropBox","source":"RXDrugDrop","address":"100 South Smith St.,  Jamestown,  TN, 38556","postal":38556,"state":"TN","lat":36.42699,"lng":-84.93308,"googleMapsUrl":"https://www.google.com/maps/place/100%20South%20Smith%20St.,%20%20Jamestown,%20%20TN,%2038556"},{"name":"RxDrugDropBox","source":"RXDrugDrop","address":"222 North Front Street,  Greenfield,  TN, 38230","postal":38230,"state":"TN","lat":36.15514,"lng":-88.80031,"googleMapsUrl":"https://www.google.com/maps/place/222%20North%20Front%20Street,%20%20Greenfield,%20%20TN,%2038230"},{"name":"B S D INC","source":"DEA","address":"716 MADISON AVENUE,  COVINGTON,  KY, 41011","postal":41011,"state":"KY","lat":39.08316,"lng":-84.51004,"googleMapsUrl":"https://www.google.com/maps/place/716%20MADISON%20AVENUE,%20%20COVINGTON,%20%20KY,%2041011"},{"name":"RxDrugDropBox","source":"RXDrugDrop","address":"100 Public Square,  Mt. Pleasant,  TN, 38474","postal":38474,"state":"TN","lat":35.5342,"lng":-87.20753,"googleMapsUrl":"https://www.google.com/maps/place/100%20Public%20Square,%20%20Mt.%20Pleasant,%20%20TN,%2038474"},{"name":"GENOA A QOL HEALTHCARE COMPANY LLC","source":"DEA","address":"43 E MAIN STREET,  STE 113,  AMELIA,  OH, 45102","postal":45102,"state":"OH","lat":39.02585,"lng":-84.21459,"googleMapsUrl":"https://www.google.com/maps/place/43%20E%20MAIN%20STREET,%20%20STE%20113,%20%20AMELIA,%20%20OH,%2045102"},{"name":"RxDrugDropBox","source":"RXDrugDrop","address":"100 Powell Street,  Decherd,  TN, 37324","postal":37324,"state":"TN","lat":35.20971,"lng":-86.07649,"googleMapsUrl":"https://www.google.com/maps/place/100%20Powell%20Street,%20%20Decherd,%20%20TN,%2037324"},{"name":"MERCY HOSPITAL-ANDERSON","source":"DEA","address":"7500 STATE ROAD,  CINCINNATI,  OH, 45255","postal":45255,"state":"OH","lat":39.08451,"lng":-84.35096,"googleMapsUrl":"https://www.google.com/maps/place/7500%20STATE%20ROAD,%20%20CINCINNATI,%20%20OH,%2045255"},{"name":"RxDrugDropBox","source":"RXDrugDrop","address":"100 North Caldwell Street,  Paris,  TN, 38242","postal":38242,"state":"TN","lat":36.30201,"lng":-88.32838,"googleMapsUrl":"https://www.google.com/maps/place/100%20North%20Caldwell%20Street,%20%20Paris,%20%20TN,%2038242"},{"name":"RxDrugDropBox","source":"RXDrugDrop","address":"233 S. Main St,  Monroe,  OH, 45050","postal":45050,"state":"OH","lat":39.44119,"lng":-84.36244,"googleMapsUrl":"https://www.google.com/maps/place/233%20S.%20Main%20St,%20%20Monroe,%20%20OH,%2045050"},{"name":"WILSON PHARMACY INC","source":"DEA","address":"523 N. STATE OF FRANKLIN RD,  JOHNSON CITY,  TN, 37604","postal":37604,"state":"TN","lat":36.31494,"lng":-82.38867,"googleMapsUrl":"https://www.google.com/maps/place/523%20N.%20STATE%20OF%20FRANKLIN%20RD,%20%20JOHNSON%20CITY,%20%20TN,%2037604"},{"name":"RxDrugDropBox","source":"RXDrugDrop","address":"229 Church Street,  Tiptonville,  TN, 38079","postal":38079,"state":"TN","lat":36.37839,"lng":-89.48458,"googleMapsUrl":"https://www.google.com/maps/place/229%20Church%20Street,%20%20Tiptonville,%20%20TN,%2038079"},{"name":"CHEFFY DRUGS LLC","source":"DEA","address":"148 EAST MAIN ST,  BARNESVILLE,  OH, 43713","postal":43713,"state":"OH","lat":39.98803,"lng":-81.17792,"googleMapsUrl":"https://www.google.com/maps/place/148%20EAST%20MAIN%20ST,%20%20BARNESVILLE,%20%20OH,%2043713"},{"name":"GENOA A QOL HEALTHCARE COMPANY LLC","source":"DEA","address":"799 SOUTH MAIN STREET,  LIMA,  OH, 45804","postal":45804,"state":"OH","lat":40.72794,"lng":-84.10503,"googleMapsUrl":"https://www.google.com/maps/place/799%20SOUTH%20MAIN%20STREET,%20%20LIMA,%20%20OH,%2045804"},{"name":"BELLWOOD DRUGS","source":"DEA","address":"135 SOUTH MAIN STREET,  WOODSFIELD,  OH, 43793","postal":43793,"state":"OH","lat":39.76185,"lng":-81.11633,"googleMapsUrl":"https://www.google.com/maps/place/135%20SOUTH%20MAIN%20STREET,%20%20WOODSFIELD,%20%20OH,%2043793"},{"name":"BARNESVILLE HOSPITAL ASSN INC","source":"DEA","address":"639 W MAIN ST,  BARNESVILLE,  OH, 43713","postal":43713,"state":"OH","lat":39.99174,"lng":-81.18784,"googleMapsUrl":"https://www.google.com/maps/place/639%20W%20MAIN%20ST,%20%20BARNESVILLE,%20%20OH,%2043713"},{"name":"RxDrugDropBox","source":"RXDrugDrop","address":"58 Elm Street South,  Lynchburg,  TN, 37352","postal":37352,"state":"TN","lat":35.28116,"lng":-86.37775,"googleMapsUrl":"https://www.google.com/maps/place/58%20Elm%20Street%20South,%20%20Lynchburg,%20%20TN,%2037352"},{"name":"MOUNDSVILLE PHARMACY","source":"DEA","address":"118 NORTH LAFAYETTE AVENUE,  MOUNDSVILLE,  WV, 26041","postal":26041,"state":"WV","lat":39.93175,"lng":-80.75214,"googleMapsUrl":"https://www.google.com/maps/place/118%20NORTH%20LAFAYETTE%20AVENUE,%20%20MOUNDSVILLE,%20%20WV,%2026041"},{"name":"CAMERLIN ENTERPRISES, LLC","source":"DEA","address":"615 WELLS STREET,  SISTERSVILLE,  WV, 26175","postal":26175,"state":"WV","lat":39.56456,"lng":-80.99506,"googleMapsUrl":"https://www.google.com/maps/place/615%20WELLS%20STREET,%20%20SISTERSVILLE,%20%20WV,%2026175"},{"name":"RxDrugDropBox","source":"RXDrugDrop","address":"101 University St.,  Martin,  TN, 38237","postal":38237,"state":"TN","lat":36.34208,"lng":-88.85071,"googleMapsUrl":"https://www.google.com/maps/place/101%20University%20St.,%20%20Martin,%20%20TN,%2038237"},{"name":"RxDrugDropBox","source":"RXDrugDrop","address":"620 Hospital Drive,  Gainesboro,  TN, 38562","postal":38562,"state":"TN","lat":36.35021,"lng":-85.65635,"googleMapsUrl":"https://www.google.com/maps/place/620%20Hospital%20Drive,%20%20Gainesboro,%20%20TN,%2038562"},{"name":"WALGREEN CO.","source":"DEA","address":"700 S BREIEL BLVD,  MIDDLETOWN,  OH, 45044","postal":45044,"state":"OH","lat":39.50337,"lng":-84.35539,"googleMapsUrl":"https://www.google.com/maps/place/700%20S%20BREIEL%20BLVD,%20%20MIDDLETOWN,%20%20OH,%2045044"},{"name":"GENOA A QOL HEALTHCARE COMPANY LLC","source":"DEA","address":"741 SCHOLL ROAD,  STE P1,  MANSFIELD,  OH, 44907","postal":44907,"state":"OH","lat":40.73698,"lng":-82.52725,"googleMapsUrl":"https://www.google.com/maps/place/741%20SCHOLL%20ROAD,%20%20STE%20P1,%20%20MANSFIELD,%20%20OH,%2044907"},{"name":"RxDrugDropBox","source":"RXDrugDrop","address":"1010 John T. Poindexter Drive,  Livingston,  TN, 38570","postal":38570,"state":"TN","lat":36.39634,"lng":-85.32411,"googleMapsUrl":"https://www.google.com/maps/place/1010%20John%20T.%20Poindexter%20Drive,%20%20Livingston,%20%20TN,%2038570"},{"name":"RxDrugDropBox","source":"RXDrugDrop","address":"6303 Harrison Ave,  Cincinnati,  OH, 45247","postal":45247,"state":"OH","lat":39.19227,"lng":-84.6585,"googleMapsUrl":"https://www.google.com/maps/place/6303%20Harrison%20Ave,%20%20Cincinnati,%20%20OH,%2045247"},{"name":"RxDrugDropBox","source":"RXDrugDrop","address":"101 University Street,  Martin,  TN, 38237","postal":38237,"state":"TN","lat":36.34208,"lng":-88.85071,"googleMapsUrl":"https://www.google.com/maps/place/101%20University%20Street,%20%20Martin,%20%20TN,%2038237"},{"name":"BERGER HOSPITAL","source":"DEA","address":"600 NORTH PICKAWAY STREET,  ATTN PHARMACY,  CIRCLEVILLE,  OH, 43113","postal":43113,"state":"OH","lat":39.60921,"lng":-82.93825,"googleMapsUrl":"https://www.google.com/maps/place/600%20NORTH%20PICKAWAY%20STREET,%20%20ATTN%20PHARMACY,%20%20CIRCLEVILLE,%20%20OH,%2043113"},{"name":"RxDrugDropBox","source":"RXDrugDrop","address":"210 Broadway Street,  Hartsville,  TN, 37074","postal":37074,"state":"TN","lat":36.3935,"lng":-86.16644,"googleMapsUrl":"https://www.google.com/maps/place/210%20Broadway%20Street,%20%20Hartsville,%20%20TN,%2037074"},{"name":"DAVE'S PHARMACY","source":"DEA","address":"411 W. 5TH STREET,  MARYSVILLE,  OH, 43040","postal":43040,"state":"OH","lat":40.23679,"lng":-83.37287,"googleMapsUrl":"https://www.google.com/maps/place/411%20W.%205TH%20STREET,%20%20MARYSVILLE,%20%20OH,%2043040"},{"name":"RxDrugDropBox","source":"RXDrugDrop","address":"600 N. Jackson St,  Greencastle,  IN, 46135","postal":46135,"state":"IN","lat":39.64854,"lng":-86.86549,"googleMapsUrl":"https://www.google.com/maps/place/600%20N.%20Jackson%20St,%20%20Greencastle,%20%20IN,%2046135"},{"name":"WALGREEN CO.","source":"DEA","address":"1321 DELAWARE AVE.,  MARION,  OH, 43302","postal":43302,"state":"OH","lat":40.56543,"lng":-83.12051,"googleMapsUrl":"https://www.google.com/maps/place/1321%20DELAWARE%20AVE.,%20%20MARION,%20%20OH,%2043302"},{"name":"RxDrugDropBox","source":"RXDrugDrop","address":"6118 Vine Street,  Cincinnati,  OH, 45216","postal":45216,"state":"OH","lat":39.1868,"lng":-84.48824,"googleMapsUrl":"https://www.google.com/maps/place/6118%20Vine%20Street,%20%20Cincinnati,%20%20OH,%2045216"},{"name":"RxDrugDropBox","source":"RXDrugDrop","address":"212 Hancock Street,  Milltown, IN, 47145","postal":47145,"state":"IN","lat":38.3416,"lng":-86.27725,"googleMapsUrl":"https://www.google.com/maps/place/212%20Hancock%20Street,%20%20Milltown,%20IN,%2047145"},{"name":"WALGREEN CO.","source":"DEA","address":"850 NORTH BRIDGE STREET,  CHILLICOTHE,  OH, 45601","postal":45601,"state":"OH","lat":39.34647,"lng":-82.9765,"googleMapsUrl":"https://www.google.com/maps/place/850%20NORTH%20BRIDGE%20STREET,%20%20CHILLICOTHE,%20%20OH,%2045601"},{"name":"RxDrugDropBox","source":"RXDrugDrop","address":"210 Forest Heights,  Paris,  TN, 38242","postal":38242,"state":"TN","lat":36.32987,"lng":-88.23842,"googleMapsUrl":"https://www.google.com/maps/place/210%20Forest%20Heights,%20%20Paris,%20%20TN,%2038242"},{"name":"RxDrugDropBox","source":"RXDrugDrop","address":"212 St Ann St,  Owensboro,  KY, 42303","postal":42303,"state":"KY","lat":37.77463,"lng":-87.11236,"googleMapsUrl":"https://www.google.com/maps/place/212%20St%20Ann%20St,%20%20Owensboro,%20%20KY,%2042303"},{"name":"RxDrugDropBox","source":"RXDrugDrop","address":"103 East Main St,  Waverly,  TN, 37185","postal":37185,"state":"TN","lat":36.08318,"lng":-87.79387,"googleMapsUrl":"https://www.google.com/maps/place/103%20East%20Main%20St,%20%20Waverly,%20%20TN,%2037185"},{"name":"RxDrugDropBox","source":"RXDrugDrop","address":"600 Korean Veterans Boulevard,  Nashville,  TN, 37203","postal":37203,"state":"TN","lat":36.15585,"lng":-86.77734,"googleMapsUrl":"https://www.google.com/maps/place/600%20Korean%20Veterans%20Boulevard,%20%20Nashville,%20%20TN,%2037203"},{"name":"RxDrugDropBox","source":"RXDrugDrop","address":"215 West Main Street,  Algood,  TN, 38506","postal":38506,"state":"TN","lat":36.19272,"lng":-85.45123,"googleMapsUrl":"https://www.google.com/maps/place/215%20West%20Main%20Street,%20%20Algood,%20%20TN,%2038506"},{"name":"MERCY HEALTH - WEST RETAIL PHARMACY","source":"DEA","address":"3300 MERCY HEALTH BOULEVARD,  ATTN: PHARMACY DEPARTMENT,  CINCINNATI,  OH, 45211","postal":45211,"state":"OH","lat":39.17947,"lng":-84.60383,"googleMapsUrl":"https://www.google.com/maps/place/3300%20MERCY%20HEALTH%20BOULEVARD,%20%20ATTN:%20PHARMACY%20DEPARTMENT,%20%20CINCINNATI,%20%20OH,%2045211"},{"name":"RxDrugDropBox","source":"RXDrugDrop","address":"582 Bethel Road,  Linden,  TN, 37096","postal":37096,"state":"TN","lat":35.59019,"lng":-87.85273,"googleMapsUrl":"https://www.google.com/maps/place/582%20Bethel%20Road,%20%20Linden,%20%20TN,%2037096"},{"name":"WALGREEN CO.","source":"DEA","address":"2320 BOUDINOT AVE.,  CINCINNATI,  OH, 45238","postal":45238,"state":"OH","lat":39.12837,"lng":-84.60541,"googleMapsUrl":"https://www.google.com/maps/place/2320%20BOUDINOT%20AVE.,%20%20CINCINNATI,%20%20OH,%2045238"},{"name":"RxDrugDropBox","source":"RXDrugDrop","address":"1019 Charlie Daniels Parkway,  Mt. Juliet,  TN, 37122","postal":37122,"state":"TN","lat":36.22173,"lng":-86.51421,"googleMapsUrl":"https://www.google.com/maps/place/1019%20Charlie%20Daniels%20Parkway,%20%20Mt.%20Juliet,%20%20TN,%2037122"},{"name":"WALGREEN CO.","source":"DEA","address":"9775 COLERAIN AVENUE,  CINCINNATI,  OH, 45251","postal":45251,"state":"OH","lat":39.24934,"lng":-84.59707,"googleMapsUrl":"https://www.google.com/maps/place/9775%20COLERAIN%20AVENUE,%20%20CINCINNATI,%20%20OH,%2045251"},{"name":"RxDrugDropBox","source":"RXDrugDrop","address":"10150 Montgomery Rd,  Montgomery,  OH, 45242","postal":45242,"state":"OH","lat":39.24275,"lng":-84.34734,"googleMapsUrl":"https://www.google.com/maps/place/10150%20Montgomery%20Rd,%20%20Montgomery,%20%20OH,%2045242"},{"name":"MERCY HEALTH - WEST RETAIL PHARMACY","source":"DEA","address":"3300 MERCY HEALTH BOULEVARD,  CINCINNATI,  OH, 45211","postal":45211,"state":"OH","lat":39.17947,"lng":-84.60383,"googleMapsUrl":"https://www.google.com/maps/place/3300%20MERCY%20HEALTH%20BOULEVARD,%20%20CINCINNATI,%20%20OH,%2045211"},{"name":"RxDrugDropBox","source":"RXDrugDrop","address":"103 Duke Street,  Cave City,  KY, 42127","postal":42127,"state":"KY","lat":37.13922,"lng":-85.95818,"googleMapsUrl":"https://www.google.com/maps/place/103%20Duke%20Street,%20%20Cave%20City,%20%20KY,%2042127"},{"name":"MERCY HOSPITAL","source":"DEA","address":"3000 MACK ROAD,  ATTENTION PHARMACY LOWER LEVEL,  FAIRFIELD,  OH, 45014","postal":45014,"state":"OH","lat":39.31099,"lng":-84.51871,"googleMapsUrl":"https://www.google.com/maps/place/3000%20MACK%20ROAD,%20%20ATTENTION%20PHARMACY%20LOWER%20LEVEL,%20%20FAIRFIELD,%20%20OH,%2045014"},{"name":"LIFELINE INSTITUTIONAL PHARMACY","source":"DEA","address":"3699 SYMMES RD,  SUITE 1,  HAMILTON,  OH, 45015","postal":45015,"state":"OH","lat":39.34333,"lng":-84.49795,"googleMapsUrl":"https://www.google.com/maps/place/3699%20SYMMES%20RD,%20%20SUITE%201,%20%20HAMILTON,%20%20OH,%2045015"},{"name":"RxDrugDropBox","source":"RXDrugDrop","address":"123 W 4th St,  Connersville,  IN, 47331","postal":47331,"state":"IN","lat":39.64064,"lng":-85.14077,"googleMapsUrl":"https://www.google.com/maps/place/123%20W%204th%20St,%20%20Connersville,%20%20IN,%2047331"},{"name":"WALGREEN CO.","source":"DEA","address":"1205 MAIN ST,  MURRAY,  KY, 42071","postal":42071,"state":"KY","lat":36.61056,"lng":-88.31537,"googleMapsUrl":"https://www.google.com/maps/place/1205%20MAIN%20ST,%20%20MURRAY,%20%20KY,%2042071"},{"name":"MURRAY-CALLOWAY CO HOSPITAL","source":"DEA","address":"803 POPLAR STREET,  MURRAY,  KY, 42071","postal":42071,"state":"KY","lat":36.60864,"lng":-88.30875,"googleMapsUrl":"https://www.google.com/maps/place/803%20POPLAR%20STREET,%20%20MURRAY,%20%20KY,%2042071"},{"name":"LOURDES HOSPITAL INC PHARMACY","source":"DEA","address":"1530 LONE OAK RD,  PADUCAH,  KY, 42003","postal":42003,"state":"KY","lat":37.05348,"lng":-88.64711,"googleMapsUrl":"https://www.google.com/maps/place/1530%20LONE%20OAK%20RD,%20%20PADUCAH,%20%20KY,%2042003"},{"name":"ST CLAIRE MEDICAL CENTER INC - RETAIL","source":"DEA","address":"222 MEDICAL CIRCLE,  MOREHEAD,  KY, 40351","postal":40351,"state":"KY","lat":38.18026,"lng":-83.44319,"googleMapsUrl":"https://www.google.com/maps/place/222%20MEDICAL%20CIRCLE,%20%20MOREHEAD,%20%20KY,%2040351"},{"name":"RxDrugDropBox","source":"RXDrugDrop","address":"520 Licking Pike,  Wilder, KY, 41071","postal":41071,"state":"KY","lat":39.05604,"lng":-84.48686,"googleMapsUrl":"https://www.google.com/maps/place/520%20Licking%20Pike,%20%20Wilder,%20KY,%2041071"},{"name":"RxDrugDropBox","source":"RXDrugDrop","address":"546 East College Street,  Jackson,  TN, 38301","postal":38301,"state":"TN","lat":35.61565,"lng":-88.81117,"googleMapsUrl":"https://www.google.com/maps/place/546%20East%20College%20Street,%20%20Jackson,%20%20TN,%2038301"},{"name":"RxDrugDropBox","source":"RXDrugDrop","address":"12740 Lexington Street,  Huntingdon,  TN, 38344","postal":38344,"state":"TN","lat":35.99988,"lng":-88.42733,"googleMapsUrl":"https://www.google.com/maps/place/12740%20Lexington%20Street,%20%20Huntingdon,%20%20TN,%2038344"},{"name":"RxDrugDropBox","source":"RXDrugDrop","address":"549 Main Street,  Whiteland,  IN, 46184","postal":46184,"state":"IN","lat":39.55006,"lng":-86.07895,"googleMapsUrl":"https://www.google.com/maps/place/549%20Main%20Street,%20%20Whiteland,%20%20IN,%2046184"},{"name":"RxDrugDropBox","source":"RXDrugDrop","address":"130 N. Fort Thomas Ave,  Fort Thomas,  KY, 41075","postal":41075,"state":"KY","lat":39.08113,"lng":-84.44941,"googleMapsUrl":"https://www.google.com/maps/place/130%20N.%20Fort%20Thomas%20Ave,%20%20Fort%20Thomas,%20%20KY,%2041075"},{"name":"RxDrugDropBox","source":"RXDrugDrop","address":"5230 Pleasant Ave,  Fairfield,  OH, 45014","postal":45014,"state":"OH","lat":39.33696,"lng":-84.5601,"googleMapsUrl":"https://www.google.com/maps/place/5230%20Pleasant%20Ave,%20%20Fairfield,%20%20OH,%2045014"},{"name":"RxDrugDropBox","source":"RXDrugDrop","address":"126 South Lebanon Road,  Loveland,  OH, 45140","postal":45140,"state":"OH","lat":39.27477,"lng":-84.28398,"googleMapsUrl":"https://www.google.com/maps/place/126%20South%20Lebanon%20Road,%20%20Loveland,%20%20OH,%2045140"},{"name":"RxDrugDropBox","source":"RXDrugDrop","address":"127 N. Main St,  New Castle,  IN, 47362","postal":47362,"state":"IN","lat":39.93139,"lng":-85.37028,"googleMapsUrl":"https://www.google.com/maps/place/127%20N.%20Main%20St,%20%20New%20Castle,%20%20IN,%2047362"},{"name":"RxDrugDropBox","source":"RXDrugDrop","address":"56 N. Main St,  Madisonville,  KY, 42431","postal":42431,"state":"KY","lat":37.34773,"lng":-87.49827,"googleMapsUrl":"https://www.google.com/maps/place/56%20N.%20Main%20St,%20%20Madisonville,%20%20KY,%2042431"},{"name":"RxDrugDropBox","source":"RXDrugDrop","address":"5701 Delhi Rd,  Cincinnati,  OH, 45102","postal":45102,"state":"OH","lat":39.09631,"lng":-84.63754,"googleMapsUrl":"https://www.google.com/maps/place/5701%20Delhi%20Rd,%20%20Cincinnati,%20%20OH,%2045102"},{"name":"RxDrugDropBox","source":"RXDrugDrop","address":"133 E. Pleasant Avenue,  Covington,  TN, 38019","postal":38019,"state":"TN","lat":35.56373,"lng":-89.64566,"googleMapsUrl":"https://www.google.com/maps/place/133%20E.%20Pleasant%20Avenue,%20%20Covington,%20%20TN,%2038019"},{"name":"RxDrugDropBox","source":"RXDrugDrop","address":"550 Justice Drive,  Lebanon,  OH, 45036","postal":45036,"state":"OH","lat":39.42418,"lng":-84.20036,"googleMapsUrl":"https://www.google.com/maps/place/550%20Justice%20Drive,%20%20Lebanon,%20%20OH,%2045036"},{"name":"RxDrugDropBox","source":"RXDrugDrop","address":"130 South Main Street,  Dunkirk,  IN, 47336","postal":47336,"state":"IN","lat":40.37487,"lng":-85.20988,"googleMapsUrl":"https://www.google.com/maps/place/130%20South%20Main%20Street,%20%20Dunkirk,%20%20IN,%2047336"},{"name":"RxDrugDropBox","source":"RXDrugDrop","address":"5500 Charlotte Pike,  Nashville,  TN, 37209","postal":37209,"state":"TN","lat":36.15095,"lng":-86.85471,"googleMapsUrl":"https://www.google.com/maps/place/5500%20Charlotte%20Pike,%20%20Nashville,%20%20TN,%2037209"},{"name":"PROMEDICA DEFIANCE REGIONAL HOSPITAL","source":"DEA","address":"1200 RALSTON AVENUE,  DEFIANCE,  OH, 43512","postal":43512,"state":"OH","lat":41.29952,"lng":-84.3737,"googleMapsUrl":"https://www.google.com/maps/place/1200%20RALSTON%20AVENUE,%20%20DEFIANCE,%20%20OH,%2043512"},{"name":"WALGREEN CO.","source":"DEA","address":"8193 MALL ROAD,  FLORENCE,  KY, 41042","postal":41042,"state":"KY","lat":38.98211,"lng":-84.65001,"googleMapsUrl":"https://www.google.com/maps/place/8193%20MALL%20ROAD,%20%20FLORENCE,%20%20KY,%2041042"},{"name":"RxDrugDropBox","source":"RXDrugDrop","address":"135 Commerce Street,  Clarksville,  TN, 37040","postal":37040,"state":"TN","lat":36.5258,"lng":-87.36089,"googleMapsUrl":"https://www.google.com/maps/place/135%20Commerce%20Street,%20%20Clarksville,%20%20TN,%2037040"},{"name":"RxDrugDropBox","source":"RXDrugDrop","address":"1443 12th Avenue South,  Nashville,  TN, 37203","postal":37203,"state":"TN","lat":36.13755,"lng":-86.78819,"googleMapsUrl":"https://www.google.com/maps/place/1443%2012th%20Avenue%20South,%20%20Nashville,%20%20TN,%2037203"},{"name":"RxDrugDropBox","source":"RXDrugDrop","address":"139 Wesley Reed,  Suite E,  Atoka,  TN, 38004","postal":38004,"state":"TN","lat":35.44531,"lng":-89.78472,"googleMapsUrl":"https://www.google.com/maps/place/139%20Wesley%20Reed,%20%20Suite%20E,%20%20Atoka,%20%20TN,%2038004"},{"name":"JUDY'S DRUG STORE INC","source":"DEA","address":"24 NORTH MAIN ST,  PETERSBURG,  WV, 26847","postal":26847,"state":"WV","lat":38.99447,"lng":-79.12428,"googleMapsUrl":"https://www.google.com/maps/place/24%20NORTH%20MAIN%20ST,%20%20PETERSBURG,%20%20WV,%2026847"},{"name":"ATRIUM PHARMACY","source":"DEA","address":"260 WEST MAIN STREET,  SUITE 217,  HENDERSONVILLE,  TN, 37075","postal":37075,"state":"TN","lat":36.30515,"lng":-86.61848,"googleMapsUrl":"https://www.google.com/maps/place/260%20WEST%20MAIN%20STREET,%20%20SUITE%20217,%20%20HENDERSONVILLE,%20%20TN,%2037075"},{"name":"WALGREEN CO.","source":"DEA","address":"198 E MAIN ST,  HENDERSONVILLE,  TN, 37075","postal":37075,"state":"TN","lat":36.30663,"lng":-86.60854,"googleMapsUrl":"https://www.google.com/maps/place/198%20E%20MAIN%20ST,%20%20HENDERSONVILLE,%20%20TN,%2037075"},{"name":"ANESTHESIA SERVICES ASSOCIATES, PLLC","source":"DEA","address":"495 DUNLOP LANE,  SUITE 106,  CLARKSVILLE,  TN, 37040","postal":37040,"state":"TN","lat":36.58062,"lng":-87.27658,"googleMapsUrl":"https://www.google.com/maps/place/495%20DUNLOP%20LANE,%20%20SUITE%20106,%20%20CLARKSVILLE,%20%20TN,%2037040"},{"name":"RxDrugDropBox","source":"RXDrugDrop","address":"1445 Gardner Ln NW,  Corydon, IN, 47112","postal":47112,"state":"IN","lat":38.22316,"lng":-86.14211,"googleMapsUrl":"https://www.google.com/maps/place/1445%20Gardner%20Ln%20NW,%20%20Corydon,%20IN,%2047112"},{"name":"RxDrugDropBox","source":"RXDrugDrop","address":"1584 Vista Lane,  Clarksville,  TN, 37040","postal":37040,"state":"TN","lat":36.50708,"lng":-87.32044,"googleMapsUrl":"https://www.google.com/maps/place/1584%20Vista%20Lane,%20%20Clarksville,%20%20TN,%2037040"},{"name":"RxDrugDropBox","source":"RXDrugDrop","address":"16 S. Maple St,  Winchester,  KY, 40391","postal":40391,"state":"KY","lat":37.99357,"lng":-84.17884,"googleMapsUrl":"https://www.google.com/maps/place/16%20S.%20Maple%20St,%20%20Winchester,%20%20KY,%2040391"},{"name":"RxDrugDropBox","source":"RXDrugDrop","address":"176 Johns Hill Rd,  Highland Heights,  KY, 41076","postal":41076,"state":"KY","lat":39.03062,"lng":-84.45588,"googleMapsUrl":"https://www.google.com/maps/place/176%20Johns%20Hill%20Rd,%20%20Highland%20Heights,%20%20KY,%2041076"},{"name":"RxDrugDropBox","source":"RXDrugDrop","address":"1801 South College Street,  Covington,  TN, 38019","postal":38019,"state":"TN","lat":35.54412,"lng":-89.64927,"googleMapsUrl":"https://www.google.com/maps/place/1801%20South%20College%20Street,%20%20Covington,%20%20TN,%2038019"},{"name":"WALGREEN CO.","source":"DEA","address":"500 S WILLOW AVE,  COOKEVILLE,  TN, 38501","postal":38501,"state":"TN","lat":36.15456,"lng":-85.51426,"googleMapsUrl":"https://www.google.com/maps/place/500%20S%20WILLOW%20AVE,%20%20COOKEVILLE,%20%20TN,%2038501"},{"name":"RxDrugDropBox","source":"RXDrugDrop","address":"18100 Cumberland Road,  Noblesville,  IN, 46060","postal":46060,"state":"IN","lat":40.05135,"lng":-85.99574,"googleMapsUrl":"https://www.google.com/maps/place/18100%20Cumberland%20Road,%20%20Noblesville,%20%20IN,%2046060"},{"name":"ST VINCENT JENNINGS HOSPITAL","source":"DEA","address":"301 HENRY STREET,  NORTH VERNON,  IN, 47265","postal":47265,"state":"IN","lat":39.01135,"lng":-85.64125,"googleMapsUrl":"https://www.google.com/maps/place/301%20HENRY%20STREET,%20%20NORTH%20VERNON,%20%20IN,%2047265"},{"name":"WALGREEN CO.","source":"DEA","address":"3130 CLARKSVILLE PIKE,  NASHVILLE,  TN, 37218","postal":37218,"state":"TN","lat":36.19339,"lng":-86.83077,"googleMapsUrl":"https://www.google.com/maps/place/3130%20CLARKSVILLE%20PIKE,%20%20NASHVILLE,%20%20TN,%2037218"},{"name":"MIDTOWN EXPRESS PHARMACY","source":"DEA","address":"300 20TH AVENUE NORTH,  SUITE 105,  NASHVILLE,  TN, 37203","postal":37203,"state":"TN","lat":36.15443,"lng":-86.80161,"googleMapsUrl":"https://www.google.com/maps/place/300%2020TH%20AVENUE%20NORTH,%20%20SUITE%20105,%20%20NASHVILLE,%20%20TN,%2037203"},{"name":"RxDrugDropBox","source":"RXDrugDrop","address":"117 N Public Square,  Glasgow,  KY, 42141","postal":42141,"state":"KY","lat":36.99597,"lng":-85.91207,"googleMapsUrl":"https://www.google.com/maps/place/117%20N%20Public%20Square,%20%20Glasgow,%20%20KY,%2042141"},{"name":"MEDICAL CENTER EAST PHARMACY","source":"DEA","address":"1215 21ST AVENUE SOUTH,  SUITE 1006,  NASHVILLE,  TN, 37232","postal":37232,"state":"TN","lat":36.14242,"lng":-86.80008,"googleMapsUrl":"https://www.google.com/maps/place/1215%2021ST%20AVENUE%20SOUTH,%20%20SUITE%201006,%20%20NASHVILLE,%20%20TN,%2037232"},{"name":"RxDrugDropBox","source":"RXDrugDrop","address":"117 Donelson Parkway,  Dover,  TN, 37058","postal":37058,"state":"TN","lat":36.48787,"lng":-87.87003,"googleMapsUrl":"https://www.google.com/maps/place/117%20Donelson%20Parkway,%20%20Dover,%20%20TN,%2037058"},{"name":"RxDrugDropBox","source":"RXDrugDrop","address":"117 N Main St,  Morgantown,  KY, 42261","postal":42261,"state":"KY","lat":37.22577,"lng":-86.68334,"googleMapsUrl":"https://www.google.com/maps/place/117%20N%20Main%20St,%20%20Morgantown,%20%20KY,%2042261"},{"name":"RxDrugDropBox","source":"RXDrugDrop","address":"116 S. State,  Greenfield,  IN, 46140","postal":46140,"state":"IN","lat":39.78366,"lng":-85.7692,"googleMapsUrl":"https://www.google.com/maps/place/116%20S.%20State,%20%20Greenfield,%20%20IN,%2046140"},{"name":"RxDrugDropBox","source":"RXDrugDrop","address":"11670 Memphis-Arlington Road,  Memphis,  TN, 38002","postal":38002,"state":"TN","lat":35.28354,"lng":-89.67381,"googleMapsUrl":"https://www.google.com/maps/place/11670%20Memphis-Arlington%20Road,%20%20Memphis,%20%20TN,%2038002"},{"name":"RxDrugDropBox","source":"RXDrugDrop","address":"116 East Union Street,  Munfordville,  KY, 42765","postal":42765,"state":"KY","lat":37.27117,"lng":-85.89156,"googleMapsUrl":"https://www.google.com/maps/place/116%20East%20Union%20Street,%20%20Munfordville,%20%20KY,%2042765"},{"name":"RxDrugDropBox","source":"RXDrugDrop","address":"1139 Preble Dr,  Eaton,  OH, 45320","postal":45320,"state":"OH","lat":39.76373,"lng":-84.64379,"googleMapsUrl":"https://www.google.com/maps/place/1139%20Preble%20Dr,%20%20Eaton,%20%20OH,%2045320"},{"name":"RxDrugDropBox","source":"RXDrugDrop","address":"117 West Smith Street,  Gallatin,  TN, 37066","postal":37066,"state":"TN","lat":36.38705,"lng":-86.44688,"googleMapsUrl":"https://www.google.com/maps/place/117%20West%20Smith%20Street,%20%20Gallatin,%20%20TN,%2037066"},{"name":"GENOA A QOL HEALTHCARE COMPANY LLC","source":"DEA","address":"1520 GERMANTOWN STREET,  DAYTON,  OH, 45417","postal":45417,"state":"OH","lat":39.74659,"lng":-84.21874,"googleMapsUrl":"https://www.google.com/maps/place/1520%20GERMANTOWN%20STREET,%20%20DAYTON,%20%20OH,%2045417"},{"name":"EQUITAS HEALTH PHARMACY #2","source":"DEA","address":"1222 S. PATTERSON BLVD.,  SUITE 110,  DAYTON,  OH, 45402","postal":45402,"state":"OH","lat":39.74028,"lng":-84.1918,"googleMapsUrl":"https://www.google.com/maps/place/1222%20S.%20PATTERSON%20BLVD.,%20%20SUITE%20110,%20%20DAYTON,%20%20OH,%2045402"},{"name":"ST. VINCENT SALEM HOSPITAL, INC.","source":"DEA","address":"911 NORTH SHELBY STREET,  SALEM,  IN, 47167","postal":47167,"state":"IN","lat":38.61029,"lng":-86.10764,"googleMapsUrl":"https://www.google.com/maps/place/911%20NORTH%20SHELBY%20STREET,%20%20SALEM,%20%20IN,%2047167"},{"name":"WALGREEN CO.","source":"DEA","address":"934 SPRING ST,  JEFFERSONVILLE,  IN, 47130","postal":47130,"state":"IN","lat":38.27821,"lng":-85.74528,"googleMapsUrl":"https://www.google.com/maps/place/934%20SPRING%20ST,%20%20JEFFERSONVILLE,%20%20IN,%2047130"},{"name":"DICKSON APOTHECARY","source":"DEA","address":"104 HIGHWAY 70 E,  DICKSON,  TN, 37055","postal":37055,"state":"TN","lat":36.07211,"lng":-87.37482,"googleMapsUrl":"https://www.google.com/maps/place/104%20HIGHWAY%2070%20E,%20%20DICKSON,%20%20TN,%2037055"},{"name":"VANDERBILT HEALTH PHARMACY","source":"DEA","address":"719 THOMPSON LANE,  SUITE 24130,  NASHVILLE,  TN, 37204","postal":37204,"state":"TN","lat":36.1119,"lng":-86.76262,"googleMapsUrl":"https://www.google.com/maps/place/719%20THOMPSON%20LANE,%20%20SUITE%2024130,%20%20NASHVILLE,%20%20TN,%2037204"},{"name":"E. HARTMAN LLC DBA DEAL DRUGS","source":"DEA","address":"397 WALLACE ROAD,  SUITE C405,  NASHVILLE,  TN, 37211","postal":37211,"state":"TN","lat":36.07786,"lng":-86.72401,"googleMapsUrl":"https://www.google.com/maps/place/397%20WALLACE%20ROAD,%20%20SUITE%20C405,%20%20NASHVILLE,%20%20TN,%2037211"},{"name":"CAREZONE PHARMACY LLC","source":"DEA","address":"800 AIRPARK CENTER DRIVE STE 809,  NASHVILLE,  TN, 37217","postal":37217,"state":"TN","lat":36.09487,"lng":-86.68027,"googleMapsUrl":"https://www.google.com/maps/place/800%20AIRPARK%20CENTER%20DRIVE%20STE%20809,%20%20NASHVILLE,%20%20TN,%2037217"},